[{"name": "ALABASTER", "long": 86.47, "icao": "KEET", "state": "ALABAMA", "abbr": "AL", "lat": 33.11, "elv": 173.0}, {"name": "ALBERTVILLE MUNI", "long": 86.15, "icao": "K8A0", "state": "ALABAMA", "abbr": "AL", "lat": 34.14, "elv": 315.0}, {"name": "ANNISTON", "long": 85.51, "icao": "KANB", "state": "ALABAMA", "abbr": "AL", "lat": 33.35, "elv": 183.0}, {"name": "AUBURN OPELIKA A", "long": 85.25, "icao": "KAUO", "state": "ALABAMA", "abbr": "AL", "lat": 32.37, "elv": 236.0}, {"name": "BIRMINGHAM", "long": 86.45, "icao": "KBHM", "state": "ALABAMA", "abbr": "AL", "lat": 33.34, "elv": 197.0}, {"name": "COURTLAND", "long": 87.21, "icao": "K9A4", "state": "ALABAMA", "abbr": "AL", "lat": 34.4, "elv": 179.0}, {"name": "DECATUR", "long": 86.57, "icao": "KDCU", "state": "ALABAMA", "abbr": "AL", "lat": 34.39, "elv": 176.0}, {"name": "DOTHAN", "long": 85.27, "icao": "KDHN", "state": "ALABAMA", "abbr": "AL", "lat": 31.19, "elv": 113.0}, {"name": "EUFAULA", "long": 85.08, "icao": "KEUF", "state": "ALABAMA", "abbr": "AL", "lat": 31.57, "elv": 87.0}, {"name": "EVERGREEN", "long": 87.03, "icao": "KGZH", "state": "ALABAMA", "abbr": "AL", "lat": 31.25, "elv": 78.0}, {"name": "FAIRHOPE", "long": 87.53, "icao": "KCQF", "state": "ALABAMA", "abbr": "AL", "lat": 30.28, "elv": 28.0}, {"name": "FLORALA MUNI", "long": 86.19, "icao": "K0J4", "state": "ALABAMA", "abbr": "AL", "lat": 31.03, "elv": 96.0}, {"name": "GADSDEN MUNI", "long": 86.04, "icao": "KGAD", "state": "ALABAMA", "abbr": "AL", "lat": 33.58, "elv": 173.0}, {"name": "GREENVILLE", "long": 86.37, "icao": "KPRN", "state": "ALABAMA", "abbr": "AL", "lat": 31.51, "elv": 138.0}, {"name": "GULF SHORES", "long": 87.4, "icao": "KJKA", "state": "ALABAMA", "abbr": "AL", "lat": 30.17, "elv": 5.0}, {"name": "HALEYVILLE", "long": 87.36, "icao": "K1M4", "state": "ALABAMA", "abbr": "AL", "lat": 34.17, "elv": 284.0}, {"name": "HUNTSVILLE", "long": 86.47, "icao": "KHSV", "state": "ALABAMA", "abbr": "AL", "lat": 34.39, "elv": 191.0}, {"name": "MONTGOMERY", "long": 86.24, "icao": "KMGM", "state": "ALABAMA", "abbr": "AL", "lat": 32.18, "elv": 63.0}, {"name": "MUSCLE SHOAL", "long": 87.36, "icao": "KMSL", "state": "ALABAMA", "abbr": "AL", "lat": 34.45, "elv": 164.0}, {"name": "REDSTONE ARSENAL", "long": 86.41, "icao": "KHUA", "state": "ALABAMA", "abbr": "AL", "lat": 34.41, "elv": 209.0}, {"name": "SCOTTSBORO", "long": 86.0, "icao": "K4A6", "state": "ALABAMA", "abbr": "AL", "lat": 34.41, "elv": 198.0}, {"name": "TROY", "long": 86.01, "icao": "KTOI", "state": "ALABAMA", "abbr": "AL", "lat": 31.51, "elv": 118.0}, {"name": "TUSCALOOSA", "long": 87.37, "icao": "KTCL", "state": "ALABAMA", "abbr": "AL", "lat": 33.13, "elv": 49.0}, {"name": "TUCSON", "long": 110.57, "icao": "KTUS", "state": "ARIZONA", "abbr": "AZ", "lat": 32.08, "elv": 776.0}, {"name": "BUCKEYE", "long": 112.41, "icao": "KBXK", "state": "ARIZONA", "abbr": "AZ", "lat": 33.25, "elv": 315.0}, {"name": "BULLHEAD CITY", "long": 114.34, "icao": "KIFP", "state": "ARIZONA", "abbr": "AZ", "lat": 35.09, "elv": 212.0}, {"name": "CASA GRANDA", "long": 111.46, "icao": "KCGZ", "state": "ARIZONA", "abbr": "AZ", "lat": 32.57, "elv": 446.0}, {"name": "CHANDLER", "long": 111.49, "icao": "KCHD", "state": "ARIZONA", "abbr": "AZ", "lat": 33.16, "elv": 379.0}, {"name": "DOUGLAS BISBEE", "long": 109.35, "icao": "KDUG", "state": "ARIZONA", "abbr": "AZ", "lat": 31.28, "elv": 1265.0}, {"name": "FLAGSTAFF", "long": 111.4, "icao": "KFLG", "state": "ARIZONA", "abbr": "AZ", "lat": 35.08, "elv": 2134.0}, {"name": "FORT HUACHUCA", "long": 110.21, "icao": "KFHU", "state": "ARIZONA", "abbr": "AZ", "lat": 31.35, "elv": 1438.0}, {"name": "GLENDALE", "long": 112.18, "icao": "KGEU", "state": "ARIZONA", "abbr": "AZ", "lat": 33.32, "elv": 325.0}, {"name": "GOODYEAR MUNICIP", "long": 112.22, "icao": "KGYR", "state": "ARIZONA", "abbr": "AZ", "lat": 33.25, "elv": 295.0}, {"name": "GRAND CANYON", "long": 112.09, "icao": "KGCN", "state": "ARIZONA", "abbr": "AZ", "lat": 35.57, "elv": 2016.0}, {"name": "KINGMAN", "long": 113.56, "icao": "KIGM", "state": "ARIZONA", "abbr": "AZ", "lat": 35.15, "elv": 1032.0}, {"name": "NOGALES", "long": 110.51, "icao": "KOLS", "state": "ARIZONA", "abbr": "AZ", "lat": 31.25, "elv": 1184.0}, {"name": "PAGE", "long": 111.27, "icao": "KPGA", "state": "ARIZONA", "abbr": "AZ", "lat": 36.55, "elv": 1307.0}, {"name": "PAYSON", "long": 111.2, "icao": "KPAN", "state": "ARIZONA", "abbr": "AZ", "lat": 34.15, "elv": 1572.0}, {"name": "PIONEER AIRFIELD", "long": 110.26, "icao": "KALK", "state": "ARIZONA", "abbr": "AZ", "lat": 31.36, "elv": 1453.0}, {"name": "PRESCOTT", "long": 112.25, "icao": "KPRC", "state": "ARIZONA", "abbr": "AZ", "lat": 34.39, "elv": 1524.0}, {"name": "SAFFORD", "long": 109.38, "icao": "KSAD", "state": "ARIZONA", "abbr": "AZ", "lat": 32.51, "elv": 962.0}, {"name": "SCOTTSDALE", "long": 111.55, "icao": "KSDL", "state": "ARIZONA", "abbr": "AZ", "lat": 33.37, "elv": 447.0}, {"name": "SEDONA", "long": 111.47, "icao": "KSEZ", "state": "ARIZONA", "abbr": "AZ", "lat": 34.51, "elv": 1473.0}, {"name": "SHOW LOW MUNICIP", "long": 110.0, "icao": "KSOW", "state": "ARIZONA", "abbr": "AZ", "lat": 34.16, "elv": 1954.0}, {"name": "WILLIAMS CLARK", "long": 112.12, "icao": "KCMR", "state": "ARIZONA", "abbr": "AZ", "lat": 35.18, "elv": 2036.0}, {"name": "WINDOW ROCK", "long": 109.04, "icao": "KRQE", "state": "ARIZONA", "abbr": "AZ", "lat": 35.39, "elv": 2055.0}, {"name": "WINSLOW", "long": 110.43, "icao": "KINW", "state": "ARIZONA", "abbr": "AZ", "lat": 35.02, "elv": 1490.0}, {"name": "YUMA MCAS", "long": 114.37, "icao": "KNYL", "state": "ARIZONA", "abbr": "AZ", "lat": 32.38, "elv": 65.0}, {"name": "ARKADELPHIA", "long": 93.04, "icao": "KM89", "state": "ARKANSAS", "abbr": "AR", "lat": 34.06, "elv": 56.0}, {"name": "BATESVILLE", "long": 91.39, "icao": "KBVX", "state": "ARKANSAS", "abbr": "AR", "lat": 35.44, "elv": 141.0}, {"name": "BENTONVILLE", "long": 94.13, "icao": "KVBT", "state": "ARKANSAS", "abbr": "AR", "lat": 36.21, "elv": 395.0}, {"name": "BLYTHEVILLE", "long": 89.5, "icao": "KHKA", "state": "ARKANSAS", "abbr": "AR", "lat": 35.56, "elv": 78.0}, {"name": "BLYTHEVILLE", "long": 89.57, "icao": "KBYH", "state": "ARKANSAS", "abbr": "AR", "lat": 35.58, "elv": 78.0}, {"name": "CAMDEN", "long": 92.46, "icao": "KCDH", "state": "ARKANSAS", "abbr": "AR", "lat": 33.37, "elv": 35.0}, {"name": "CLINTON MUNI", "long": 92.27, "icao": "KCCA", "state": "ARKANSAS", "abbr": "AR", "lat": 35.36, "elv": 157.0}, {"name": "CORNING", "long": 90.39, "icao": "K4M9", "state": "ARKANSAS", "abbr": "AR", "lat": 36.24, "elv": 90.0}, {"name": "DE QUEEN", "long": 94.24, "icao": "KDEQ", "state": "ARKANSAS", "abbr": "AR", "lat": 34.03, "elv": 106.0}, {"name": "EL DORADO", "long": 92.49, "icao": "KELD", "state": "ARKANSAS", "abbr": "AR", "lat": 33.13, "elv": 81.0}, {"name": "FAYETTEVILLE", "long": 94.1, "icao": "KFYV", "state": "ARKANSAS", "abbr": "AR", "lat": 36.01, "elv": 379.0}, {"name": "FORT SMITH", "long": 94.22, "icao": "KFSM", "state": "ARKANSAS", "abbr": "AR", "lat": 35.2, "elv": 140.0}, {"name": "HARRISON", "long": 93.09, "icao": "KHRO", "state": "ARKANSAS", "abbr": "AR", "lat": 36.16, "elv": 417.0}, {"name": "HOT SPRINGS", "long": 93.06, "icao": "KHOT", "state": "ARKANSAS", "abbr": "AR", "lat": 34.29, "elv": 162.0}, {"name": "JONESBORO", "long": 90.39, "icao": "KJBR", "state": "ARKANSAS", "abbr": "AR", "lat": 35.5, "elv": 79.0}, {"name": "LITTLE ROCK", "long": 92.14, "icao": "KLIT", "state": "ARKANSAS", "abbr": "AR", "lat": 34.44, "elv": 79.0}, {"name": "LITTLE ROCK AFB", "long": 92.09, "icao": "KLRF", "state": "ARKANSAS", "abbr": "AR", "lat": 34.55, "elv": 95.0}, {"name": "MENA INTERMTN", "long": 94.12, "icao": "KMEZ", "state": "ARKANSAS", "abbr": "AR", "lat": 34.33, "elv": 329.0}, {"name": "W MEMPHIS MUNI", "long": 90.14, "icao": "KAWM", "state": "ARKANSAS", "abbr": "AR", "lat": 35.08, "elv": 65.0}, {"name": "MONTICELLO", "long": 91.45, "icao": "KLLQ", "state": "ARKANSAS", "abbr": "AR", "lat": 33.38, "elv": 83.0}, {"name": "MOUNT IDA", "long": 93.35, "icao": "KMWT", "state": "ARKANSAS", "abbr": "AR", "lat": 34.33, "elv": 214.0}, {"name": "MOUNTAIN HOME", "long": 92.28, "icao": "KBPK", "state": "ARKANSAS", "abbr": "AR", "lat": 36.22, "elv": 280.0}, {"name": "NEWPORT", "long": 91.1, "icao": "KM19", "state": "ARKANSAS", "abbr": "AR", "lat": 35.39, "elv": 73.0}, {"name": "ROGERS", "long": 94.05, "icao": "KROG", "state": "ARKANSAS", "abbr": "AR", "lat": 36.22, "elv": 415.0}, {"name": "RUSSELLVILLE", "long": 93.06, "icao": "KRUE", "state": "ARKANSAS", "abbr": "AR", "lat": 35.15, "elv": 115.0}, {"name": "SEARCY", "long": 91.44, "icao": "KSRC", "state": "ARKANSAS", "abbr": "AR", "lat": 35.15, "elv": 80.0}, {"name": "SILOAM SPRING", "long": 94.28, "icao": "KSLG", "state": "ARKANSAS", "abbr": "AR", "lat": 36.12, "elv": 300.0}, {"name": "SPRINGDALE MUNI", "long": 94.07, "icao": "KASG", "state": "ARKANSAS", "abbr": "AR", "lat": 36.1, "elv": 412.0}, {"name": "STUTTGART", "long": 91.34, "icao": "KSGT", "state": "ARKANSAS", "abbr": "AR", "lat": 34.36, "elv": 68.0}, {"name": "TEXARKANA", "long": 93.59, "icao": "KTXK", "state": "ARKANSAS", "abbr": "AR", "lat": 33.27, "elv": 111.0}, {"name": "WALNUT RIDGE", "long": 90.55, "icao": "KARG", "state": "ARKANSAS", "abbr": "AR", "lat": 36.07, "elv": 83.0}, {"name": "ALTURAS", "long": 120.34, "icao": "KAAT", "state": "CALIFORNIA", "abbr": "CA", "lat": 41.29, "elv": 1331.0}, {"name": "AUBURN MUNI", "long": 121.05, "icao": "KAUN", "state": "CALIFORNIA", "abbr": "CA", "lat": 38.57, "elv": 467.0}, {"name": "AVALON", "long": 118.25, "icao": "KAVX", "state": "CALIFORNIA", "abbr": "CA", "lat": 33.24, "elv": 482.0}, {"name": "BAKERSFIELD", "long": 119.03, "icao": "KBFL", "state": "CALIFORNIA", "abbr": "CA", "lat": 35.26, "elv": 151.0}, {"name": "BIG BEAR CITY", "long": 116.51, "icao": "KL35", "state": "CALIFORNIA", "abbr": "CA", "lat": 34.16, "elv": 2059.0}, {"name": "BICYCLE LAKE", "long": 116.37, "icao": "KBYS", "state": "CALIFORNIA", "abbr": "CA", "lat": 35.17, "elv": 716.0}, {"name": "BISHOP", "long": 118.21, "icao": "KBIH", "state": "CALIFORNIA", "abbr": "CA", "lat": 37.22, "elv": 1253.0}, {"name": "BLYTHE", "long": 114.43, "icao": "KBLH", "state": "CALIFORNIA", "abbr": "CA", "lat": 33.37, "elv": 119.0}, {"name": "BURBANK", "long": 118.22, "icao": "KBUR", "state": "CALIFORNIA", "abbr": "CA", "lat": 34.12, "elv": 217.0}, {"name": "CAMARILLO", "long": 119.04, "icao": "KCMA", "state": "CALIFORNIA", "abbr": "CA", "lat": 34.13, "elv": 23.0}, {"name": "CAMP PENDLETON", "long": 117.2, "icao": "KNFG", "state": "CALIFORNIA", "abbr": "CA", "lat": 33.17, "elv": 24.0}, {"name": "CAMPO", "long": 116.28, "icao": "KCZZ", "state": "CALIFORNIA", "abbr": "CA", "lat": 32.38, "elv": 807.0}, {"name": "CARLSBAD", "long": 117.17, "icao": "KCRQ", "state": "CALIFORNIA", "abbr": "CA", "lat": 33.08, "elv": 99.0}, {"name": "CHICO MUNICIPAL", "long": 121.5, "icao": "KCIC", "state": "CALIFORNIA", "abbr": "CA", "lat": 39.47, "elv": 73.0}, {"name": "CHINO", "long": 117.37, "icao": "KCNO", "state": "CALIFORNIA", "abbr": "CA", "lat": 33.59, "elv": 207.0}, {"name": "COLUMBIA", "long": 120.25, "icao": "KO22", "state": "CALIFORNIA", "abbr": "CA", "lat": 38.02, "elv": 646.0}, {"name": "CONCORD", "long": 122.03, "icao": "KCCR", "state": "CALIFORNIA", "abbr": "CA", "lat": 38.0, "elv": 11.0}, {"name": "CORONA MUNI", "long": 117.36, "icao": "KAJO", "state": "CALIFORNIA", "abbr": "CA", "lat": 33.54, "elv": 163.0}, {"name": "CRESCENT CITY", "long": 124.13, "icao": "KCEC", "state": "CALIFORNIA", "abbr": "CA", "lat": 41.46, "elv": 17.0}, {"name": "DAGGETT", "long": 116.47, "icao": "KDAG", "state": "CALIFORNIA", "abbr": "CA", "lat": 34.51, "elv": 587.0}, {"name": "DAVIS", "long": 121.47, "icao": "KEDU", "state": "CALIFORNIA", "abbr": "CA", "lat": 38.32, "elv": 21.0}, {"name": "EDWARDS AFB", "long": 117.52, "icao": "KEDW", "state": "CALIFORNIA", "abbr": "CA", "lat": 34.53, "elv": 702.0}, {"name": "EL MONTE", "long": 118.01, "icao": "KEMT", "state": "CALIFORNIA", "abbr": "CA", "lat": 34.04, "elv": 90.0}, {"name": "EMIGRANT GAP", "long": 120.42, "icao": "KBLU", "state": "CALIFORNIA", "abbr": "CA", "lat": 39.17, "elv": 1609.0}, {"name": "FORTUNA", "long": 124.08, "icao": "KFOT", "state": "CALIFORNIA", "abbr": "CA", "lat": 40.33, "elv": 120.0}, {"name": "FRESNO", "long": 119.43, "icao": "KFAT", "state": "CALIFORNIA", "abbr": "CA", "lat": 36.47, "elv": 104.0}, {"name": "FULLERTON", "long": 117.59, "icao": "KFUL", "state": "CALIFORNIA", "abbr": "CA", "lat": 33.52, "elv": 35.0}, {"name": "GRASS VALLEY", "long": 121.0, "icao": "KGOO", "state": "CALIFORNIA", "abbr": "CA", "lat": 39.13, "elv": 962.0}, {"name": "HALF MOON BAY", "long": 122.3, "icao": "KHAF", "state": "CALIFORNIA", "abbr": "CA", "lat": 37.31, "elv": 21.0}, {"name": "HANFORD", "long": 119.37, "icao": "KHJO", "state": "CALIFORNIA", "abbr": "CA", "lat": 36.19, "elv": 74.0}, {"name": "HAWTHORNE", "long": 118.2, "icao": "KHHR", "state": "CALIFORNIA", "abbr": "CA", "lat": 33.55, "elv": 18.0}, {"name": "HAYWARD", "long": 122.07, "icao": "KHWD", "state": "CALIFORNIA", "abbr": "CA", "lat": 37.4, "elv": 21.0}, {"name": "HOLLISTER MUNI", "long": 121.25, "icao": "KCVH", "state": "CALIFORNIA", "abbr": "CA", "lat": 36.54, "elv": 70.0}, {"name": "IMPERIAL BEACH", "long": 117.07, "icao": "KNRS", "state": "CALIFORNIA", "abbr": "CA", "lat": 32.34, "elv": 7.0}, {"name": "INYOKERN", "long": 117.49, "icao": "KIYK", "state": "CALIFORNIA", "abbr": "CA", "lat": 35.4, "elv": 749.0}, {"name": "LINCOLN", "long": 121.21, "icao": "KLHM", "state": "CALIFORNIA", "abbr": "CA", "lat": 38.55, "elv": 37.0}, {"name": "LIVERMORE", "long": 121.49, "icao": "KLVK", "state": "CALIFORNIA", "abbr": "CA", "lat": 37.42, "elv": 117.0}, {"name": "LOMPOC", "long": 120.28, "icao": "KLPC", "state": "CALIFORNIA", "abbr": "CA", "lat": 34.4, "elv": 27.0}, {"name": "LONG BEACH", "long": 118.09, "icao": "KLGB", "state": "CALIFORNIA", "abbr": "CA", "lat": 33.49, "elv": 10.0}, {"name": "LOS ALAMITOS AAF", "long": 118.02, "icao": "KSLI", "state": "CALIFORNIA", "abbr": "CA", "lat": 33.46, "elv": 11.0}, {"name": "LOS ANGELES", "long": 118.23, "icao": "KLAX", "state": "CALIFORNIA", "abbr": "CA", "lat": 33.56, "elv": 46.0}, {"name": "LOS ANGELES", "long": 118.17, "icao": "KCQT", "state": "CALIFORNIA", "abbr": "CA", "lat": 34.01, "elv": 56.0}, {"name": "MADERA", "long": 120.07, "icao": "KMAE", "state": "CALIFORNIA", "abbr": "CA", "lat": 36.59, "elv": 77.0}, {"name": "MARYSVILLE", "long": 121.34, "icao": "KMYV", "state": "CALIFORNIA", "abbr": "CA", "lat": 39.06, "elv": 21.0}, {"name": "MATHER FIELD", "long": 121.17, "icao": "KMHR", "state": "CALIFORNIA", "abbr": "CA", "lat": 38.32, "elv": 29.0}, {"name": "MCCLELLAN AFB", "long": 121.24, "icao": "KMCC", "state": "CALIFORNIA", "abbr": "CA", "lat": 38.4, "elv": 23.0}, {"name": "MERCED", "long": 120.3, "icao": "KMCE", "state": "CALIFORNIA", "abbr": "CA", "lat": 37.17, "elv": 47.0}, {"name": "MODESTO", "long": 120.57, "icao": "KMOD", "state": "CALIFORNIA", "abbr": "CA", "lat": 37.37, "elv": 29.0}, {"name": "MOJAVE", "long": 118.09, "icao": "KMHV", "state": "CALIFORNIA", "abbr": "CA", "lat": 35.04, "elv": 849.0}, {"name": "MONTEREY", "long": 121.51, "icao": "KMRY", "state": "CALIFORNIA", "abbr": "CA", "lat": 36.35, "elv": 66.0}, {"name": "MOUNT SHASTA", "long": 122.19, "icao": "KMHS", "state": "CALIFORNIA", "abbr": "CA", "lat": 41.19, "elv": 1078.0}, {"name": "MOUNT WILSON", "long": 118.04, "icao": "KMWS", "state": "CALIFORNIA", "abbr": "CA", "lat": 34.13, "elv": 1739.0}, {"name": "NAPA", "long": 122.17, "icao": "KAPC", "state": "CALIFORNIA", "abbr": "CA", "lat": 38.12, "elv": 13.0}, {"name": "NEEDLES", "long": 114.37, "icao": "KEED", "state": "CALIFORNIA", "abbr": "CA", "lat": 34.46, "elv": 302.0}, {"name": "NEWHALL", "long": 118.34, "icao": "K3A6", "state": "CALIFORNIA", "abbr": "CA", "lat": 34.22, "elv": 427.0}, {"name": "NORTH ISLAND NAS", "long": 117.13, "icao": "KNZY", "state": "CALIFORNIA", "abbr": "CA", "lat": 32.42, "elv": 8.0}, {"name": "OAKLAND", "long": 122.13, "icao": "KOAK", "state": "CALIFORNIA", "abbr": "CA", "lat": 37.42, "elv": 26.0}, {"name": "OCEANSIDE", "long": 117.21, "icao": "KOKB", "state": "CALIFORNIA", "abbr": "CA", "lat": 33.13, "elv": 8.0}, {"name": "ONTARIO", "long": 117.35, "icao": "KONT", "state": "CALIFORNIA", "abbr": "CA", "lat": 34.03, "elv": 274.0}, {"name": "OROVILLE", "long": 121.37, "icao": "KOVE", "state": "CALIFORNIA", "abbr": "CA", "lat": 39.3, "elv": 58.0}, {"name": "OXNARD", "long": 119.12, "icao": "KOXR", "state": "CALIFORNIA", "abbr": "CA", "lat": 34.12, "elv": 20.0}, {"name": "PALM SPRINGS", "long": 116.3, "icao": "KPSP", "state": "CALIFORNIA", "abbr": "CA", "lat": 33.49, "elv": 135.0}, {"name": "PALMDALE", "long": 118.05, "icao": "KPMD", "state": "CALIFORNIA", "abbr": "CA", "lat": 34.38, "elv": 780.0}, {"name": "PALO ALTO", "long": 122.07, "icao": "KPAO", "state": "CALIFORNIA", "abbr": "CA", "lat": 37.28, "elv": 2.0}, {"name": "PASO ROBLES", "long": 120.38, "icao": "KPRB", "state": "CALIFORNIA", "abbr": "CA", "lat": 35.4, "elv": 245.0}, {"name": "PETALUMA", "long": 122.36, "icao": "KO69", "state": "CALIFORNIA", "abbr": "CA", "lat": 38.15, "elv": 28.0}, {"name": "PLACERVILLE", "long": 120.45, "icao": "KPVF", "state": "CALIFORNIA", "abbr": "CA", "lat": 38.43, "elv": 789.0}, {"name": "POINT MUGU NAS", "long": 119.07, "icao": "KNTD", "state": "CALIFORNIA", "abbr": "CA", "lat": 34.07, "elv": 4.0}, {"name": "PORTERVILLE", "long": 119.04, "icao": "KPTV", "state": "CALIFORNIA", "abbr": "CA", "lat": 36.01, "elv": 135.0}, {"name": "RED BLUFF", "long": 122.15, "icao": "KRBL", "state": "CALIFORNIA", "abbr": "CA", "lat": 40.09, "elv": 104.0}, {"name": "REDDING", "long": 122.18, "icao": "KRDD", "state": "CALIFORNIA", "abbr": "CA", "lat": 40.31, "elv": 155.0}, {"name": "RIVERSIDE", "long": 117.27, "icao": "KRAL", "state": "CALIFORNIA", "abbr": "CA", "lat": 33.57, "elv": 252.0}, {"name": "RAMONA", "long": 116.55, "icao": "KRNM", "state": "CALIFORNIA", "abbr": "CA", "lat": 33.02, "elv": 427.0}, {"name": "SACRAMENTO", "long": 121.3, "icao": "KSAC", "state": "CALIFORNIA", "abbr": "CA", "lat": 38.3, "elv": 11.0}, {"name": "SALINAS", "long": 121.36, "icao": "KSNS", "state": "CALIFORNIA", "abbr": "CA", "lat": 36.4, "elv": 30.0}, {"name": "SAN BERNARDINO", "long": 117.14, "icao": "KSBD", "state": "CALIFORNIA", "abbr": "CA", "lat": 34.06, "elv": 353.0}, {"name": "SAN CARLOS AIRPO", "long": 122.15, "icao": "KSQL", "state": "CALIFORNIA", "abbr": "CA", "lat": 37.31, "elv": 1.0}, {"name": "SAN DIEGO", "long": 117.11, "icao": "KSAN", "state": "CALIFORNIA", "abbr": "CA", "lat": 32.44, "elv": 12.0}, {"name": "SAN FRANCISCO", "long": 122.22, "icao": "KSFO", "state": "CALIFORNIA", "abbr": "CA", "lat": 37.37, "elv": 3.0}, {"name": "SAN JOSE", "long": 121.55, "icao": "KSJC", "state": "CALIFORNIA", "abbr": "CA", "lat": 37.22, "elv": 24.0}, {"name": "SAN LUIS OBISPO", "long": 120.38, "icao": "KSBP", "state": "CALIFORNIA", "abbr": "CA", "lat": 35.14, "elv": 59.0}, {"name": "SAN MARTIN", "long": 121.36, "icao": "KE16", "state": "CALIFORNIA", "abbr": "CA", "lat": 37.05, "elv": 86.0}, {"name": "SAN NICOLAS ISLA", "long": 119.27, "icao": "KNSI", "state": "CALIFORNIA", "abbr": "CA", "lat": 33.13, "elv": 154.0}, {"name": "SANDBERG", "long": 118.43, "icao": "KSDB", "state": "CALIFORNIA", "abbr": "CA", "lat": 34.45, "elv": 1377.0}, {"name": "COSTA MESA", "long": 117.52, "icao": "KSNA", "state": "CALIFORNIA", "abbr": "CA", "lat": 33.4, "elv": 16.0}, {"name": "SANTA BARBARA", "long": 119.51, "icao": "KSBA", "state": "CALIFORNIA", "abbr": "CA", "lat": 34.26, "elv": 3.0}, {"name": "SANTA MARIA", "long": 120.27, "icao": "KSMX", "state": "CALIFORNIA", "abbr": "CA", "lat": 34.54, "elv": 74.0}, {"name": "SANTA MONICA", "long": 118.27, "icao": "KSMO", "state": "CALIFORNIA", "abbr": "CA", "lat": 34.01, "elv": 57.0}, {"name": "SANTA ROSA", "long": 122.49, "icao": "KSTS", "state": "CALIFORNIA", "abbr": "CA", "lat": 38.3, "elv": 39.0}, {"name": "SANTA YNEZ", "long": 120.04, "icao": "KIZA", "state": "CALIFORNIA", "abbr": "CA", "lat": 34.36, "elv": 205.0}, {"name": "SOUTH LAKE TAHOE", "long": 120.0, "icao": "KTVL", "state": "CALIFORNIA", "abbr": "CA", "lat": 38.54, "elv": 1924.0}, {"name": "STOCKTON", "long": 121.13, "icao": "KSCK", "state": "CALIFORNIA", "abbr": "CA", "lat": 37.53, "elv": 10.0}, {"name": "TORRANCE MUNICIP", "long": 118.19, "icao": "KTOA", "state": "CALIFORNIA", "abbr": "CA", "lat": 33.47, "elv": 31.0}, {"name": "TRUCKEE TAHOE", "long": 120.07, "icao": "KTRK", "state": "CALIFORNIA", "abbr": "CA", "lat": 39.19, "elv": 1798.0}, {"name": "TEHACHAPI", "long": 118.26, "icao": "KTSP", "state": "CALIFORNIA", "abbr": "CA", "lat": 35.08, "elv": 1220.0}, {"name": "TWENTYNINE PALMS", "long": 116.1, "icao": "KNXP", "state": "CALIFORNIA", "abbr": "CA", "lat": 34.17, "elv": 626.0}, {"name": "UKIAH", "long": 123.12, "icao": "KUKI", "state": "CALIFORNIA", "abbr": "CA", "lat": 39.07, "elv": 187.0}, {"name": "VACAVILLE", "long": 121.57, "icao": "KVCB", "state": "CALIFORNIA", "abbr": "CA", "lat": 38.23, "elv": 33.0}, {"name": "VAN NUYS", "long": 118.29, "icao": "KVNY", "state": "CALIFORNIA", "abbr": "CA", "lat": 34.13, "elv": 245.0}, {"name": "VANDENBERG AFB", "long": 120.35, "icao": "KVBG", "state": "CALIFORNIA", "abbr": "CA", "lat": 34.44, "elv": 112.0}, {"name": "VICTORVILLE", "long": 117.23, "icao": "KVCV", "state": "CALIFORNIA", "abbr": "CA", "lat": 34.35, "elv": 876.0}, {"name": "VISALIA MUNI", "long": 119.24, "icao": "KVIS", "state": "CALIFORNIA", "abbr": "CA", "lat": 36.19, "elv": 89.0}, {"name": "WATSONVILLE", "long": 121.47, "icao": "KWVI", "state": "CALIFORNIA", "abbr": "CA", "lat": 36.56, "elv": 43.0}, {"name": "WEAVERVILLE", "long": 122.55, "icao": "KO54", "state": "CALIFORNIA", "abbr": "CA", "lat": 40.45, "elv": 717.0}, {"name": "AKRON", "long": 103.13, "icao": "KAKO", "state": "COLORADO", "abbr": "CO", "lat": 40.1, "elv": 1421.0}, {"name": "ALAMOSA", "long": 105.52, "icao": "KALS", "state": "COLORADO", "abbr": "CO", "lat": 37.26, "elv": 2299.0}, {"name": "ASPEN", "long": 106.52, "icao": "KASE", "state": "COLORADO", "abbr": "CO", "lat": 39.14, "elv": 2354.0}, {"name": "BERTHOUD PASS", "long": 105.46, "icao": "K0CO", "state": "COLORADO", "abbr": "CO", "lat": 39.48, "elv": 4113.0}, {"name": "BURLINGTON", "long": 102.17, "icao": "KITR", "state": "COLORADO", "abbr": "CO", "lat": 39.15, "elv": 1279.0}, {"name": "COLORADO SPRINGS", "long": 104.43, "icao": "KCOS", "state": "COLORADO", "abbr": "CO", "lat": 38.49, "elv": 1856.0}, {"name": "CO SPNGS MEADOW", "long": 104.34, "icao": "KFLY", "state": "COLORADO", "abbr": "CO", "lat": 38.57, "elv": 2096.0}, {"name": "CORTEZ", "long": 108.38, "icao": "KCEZ", "state": "COLORADO", "abbr": "CO", "lat": 37.18, "elv": 1797.0}, {"name": "CRAIG", "long": 107.31, "icao": "KCAG", "state": "COLORADO", "abbr": "CO", "lat": 40.3, "elv": 1887.0}, {"name": "DURANGO", "long": 107.46, "icao": "KDRO", "state": "COLORADO", "abbr": "CO", "lat": 37.09, "elv": 2035.0}, {"name": "FORT CARSON", "long": 104.46, "icao": "KFCS", "state": "COLORADO", "abbr": "CO", "lat": 38.4, "elv": 1789.0}, {"name": "GRAND JUNCTION", "long": 108.31, "icao": "KGJT", "state": "COLORADO", "abbr": "CO", "lat": 39.07, "elv": 1475.0}, {"name": "GUNNISON", "long": 106.55, "icao": "KGUC", "state": "COLORADO", "abbr": "CO", "lat": 38.31, "elv": 2339.0}, {"name": "LA JUNTA", "long": 103.31, "icao": "KLHX", "state": "COLORADO", "abbr": "CO", "lat": 38.03, "elv": 1277.0}, {"name": "LAMAR", "long": 102.41, "icao": "KLAA", "state": "COLORADO", "abbr": "CO", "lat": 38.04, "elv": 1119.0}, {"name": "LEADVILLE", "long": 106.19, "icao": "KLXV", "state": "COLORADO", "abbr": "CO", "lat": 39.14, "elv": 3028.0}, {"name": "LIMON", "long": 103.4, "icao": "KLIC", "state": "COLORADO", "abbr": "CO", "lat": 39.16, "elv": 1630.0}, {"name": "MEEKER", "long": 107.53, "icao": "KEEO", "state": "COLORADO", "abbr": "CO", "lat": 40.03, "elv": 1930.0}, {"name": "MONTROSE", "long": 107.54, "icao": "KMTJ", "state": "COLORADO", "abbr": "CO", "lat": 38.3, "elv": 1750.0}, {"name": "PUEBLO", "long": 104.3, "icao": "KPUB", "state": "COLORADO", "abbr": "CO", "lat": 38.17, "elv": 1420.0}, {"name": "RIFLE", "long": 107.44, "icao": "KRIL", "state": "COLORADO", "abbr": "CO", "lat": 39.32, "elv": 1678.0}, {"name": "SAGUACHE MUNI", "long": 106.1, "icao": "K04V", "state": "COLORADO", "abbr": "CO", "lat": 38.06, "elv": 2385.0}, {"name": "SPRINGFIELD", "long": 102.37, "icao": "KSPD", "state": "COLORADO", "abbr": "CO", "lat": 37.17, "elv": 1335.0}, {"name": "STEAMBOAT SPRING", "long": 106.52, "icao": "KSBS", "state": "COLORADO", "abbr": "CO", "lat": 40.31, "elv": 2096.0}, {"name": "MT WERNER SBS", "long": 106.45, "icao": "K3MW", "state": "COLORADO", "abbr": "CO", "lat": 40.27, "elv": 3241.0}, {"name": "TELLURIDE REGION", "long": 107.54, "icao": "KTEX", "state": "COLORADO", "abbr": "CO", "lat": 37.57, "elv": 2769.0}, {"name": "BRIDGEPORT", "long": 73.08, "icao": "KBDR", "state": "CONNECTICUT", "abbr": "CT", "lat": 41.1, "elv": 7.0}, {"name": "CHESTER", "long": 72.3, "icao": "KSNC", "state": "CONNECTICUT", "abbr": "CT", "lat": 41.23, "elv": 127.0}, {"name": "DANBURY", "long": 73.29, "icao": "KDXR", "state": "CONNECTICUT", "abbr": "CT", "lat": 41.22, "elv": 139.0}, {"name": "MERIDEN", "long": 72.5, "icao": "KMMK", "state": "CONNECTICUT", "abbr": "CT", "lat": 41.31, "elv": 31.0}, {"name": "WILLIMANTIC", "long": 72.11, "icao": "KIJD", "state": "CONNECTICUT", "abbr": "CT", "lat": 41.45, "elv": 75.0}, {"name": "WINDSOR LOCKS", "long": 72.41, "icao": "KBDL", "state": "CONNECTICUT", "abbr": "CT", "lat": 41.56, "elv": 60.0}, {"name": "DOVER AFB", "long": 75.28, "icao": "KDOV", "state": "DELAWARE", "abbr": "DE", "lat": 39.07, "elv": 9.0}, {"name": "GEORGETOWN", "long": 75.22, "icao": "KGED", "state": "DELAWARE", "abbr": "DE", "lat": 38.41, "elv": 19.0}, {"name": "WILMINGTON", "long": 75.36, "icao": "KILG", "state": "DELAWARE", "abbr": "DE", "lat": 39.4, "elv": 28.0}, {"name": "APALACHICOLA", "long": 85.02, "icao": "KAAF", "state": "FLORIDA", "abbr": "FL", "lat": 29.44, "elv": 5.0}, {"name": "BARTOW MUNICIPAL", "long": 81.46, "icao": "KBOW", "state": "FLORIDA", "abbr": "FL", "lat": 27.56, "elv": 39.0}, {"name": "BOCA RATON", "long": 80.06, "icao": "KBCT", "state": "FLORIDA", "abbr": "FL", "lat": 26.23, "elv": 4.0}, {"name": "BROOKSVILLE", "long": 82.27, "icao": "KBKV", "state": "FLORIDA", "abbr": "FL", "lat": 28.28, "elv": 20.0}, {"name": "CAPE CANAVERAL", "long": 80.32, "icao": "KXMR", "state": "FLORIDA", "abbr": "FL", "lat": 28.28, "elv": 3.0}, {"name": "CRESTVIEW", "long": 86.31, "icao": "KCEW", "state": "FLORIDA", "abbr": "FL", "lat": 30.47, "elv": 55.0}, {"name": "CROSS CITY", "long": 83.06, "icao": "KCTY", "state": "FLORIDA", "abbr": "FL", "lat": 29.38, "elv": 13.0}, {"name": "CRYSTAL RIVER", "long": 82.34, "icao": "KCGC", "state": "FLORIDA", "abbr": "FL", "lat": 28.52, "elv": 3.0}, {"name": "DAYTONA BEACH", "long": 81.04, "icao": "KDAB", "state": "FLORIDA", "abbr": "FL", "lat": 29.11, "elv": 9.0}, {"name": "DESTIN", "long": 86.28, "icao": "KDTS", "state": "FLORIDA", "abbr": "FL", "lat": 30.24, "elv": 5.0}, {"name": "FERNANDINA BEACH", "long": 81.28, "icao": "KFHB", "state": "FLORIDA", "abbr": "FL", "lat": 30.37, "elv": 5.0}, {"name": "FORT MYERS", "long": 81.45, "icao": "KRSW", "state": "FLORIDA", "abbr": "FL", "lat": 26.32, "elv": 10.0}, {"name": "FORT MYERS", "long": 81.52, "icao": "KFMY", "state": "FLORIDA", "abbr": "FL", "lat": 26.35, "elv": 4.0}, {"name": "FORT PIERCE", "long": 80.23, "icao": "KFPR", "state": "FLORIDA", "abbr": "FL", "lat": 27.3, "elv": 13.0}, {"name": "GAINESVILLE", "long": 82.17, "icao": "KGNV", "state": "FLORIDA", "abbr": "FL", "lat": 29.42, "elv": 45.0}, {"name": "HOLLYWOOD", "long": 80.14, "icao": "KHWO", "state": "FLORIDA", "abbr": "FL", "lat": 26.0, "elv": 2.0}, {"name": "HOMESTEAD AFB", "long": 80.22, "icao": "KHST", "state": "FLORIDA", "abbr": "FL", "lat": 25.28, "elv": 2.0}, {"name": "HURLBURT FIELD", "long": 86.4, "icao": "KHRT", "state": "FLORIDA", "abbr": "FL", "lat": 30.25, "elv": 12.0}, {"name": "INVERNESS", "long": 82.19, "icao": "KX40", "state": "FLORIDA", "abbr": "FL", "lat": 28.48, "elv": 15.0}, {"name": "JACKSONVILLE NAS", "long": 81.4, "icao": "KNIP", "state": "FLORIDA", "abbr": "FL", "lat": 30.13, "elv": 7.0}, {"name": "JACKSONVILLE", "long": 81.41, "icao": "KJAX", "state": "FLORIDA", "abbr": "FL", "lat": 30.3, "elv": 10.0}, {"name": "KEYSTONE HEIGHTS", "long": 82.03, "icao": "K42J", "state": "FLORIDA", "abbr": "FL", "lat": 29.51, "elv": 60.0}, {"name": "KEY WEST NAS", "long": 81.4, "icao": "KNQX", "state": "FLORIDA", "abbr": "FL", "lat": 24.34, "elv": 2.0}, {"name": "KEY WEST", "long": 81.45, "icao": "KEYW", "state": "FLORIDA", "abbr": "FL", "lat": 24.33, "elv": 5.0}, {"name": "LAKELAND REGIONA", "long": 82.01, "icao": "KLAL", "state": "FLORIDA", "abbr": "FL", "lat": 27.58, "elv": 43.0}, {"name": "LEESBURG", "long": 81.49, "icao": "KLEE", "state": "FLORIDA", "abbr": "FL", "lat": 28.49, "elv": 23.0}, {"name": "MARATHON", "long": 81.03, "icao": "KMTH", "state": "FLORIDA", "abbr": "FL", "lat": 24.44, "elv": 2.0}, {"name": "MARIANNA", "long": 85.11, "icao": "KMAI", "state": "FLORIDA", "abbr": "FL", "lat": 30.5, "elv": 32.0}, {"name": "MAYPORT NAS", "long": 81.25, "icao": "KNRB", "state": "FLORIDA", "abbr": "FL", "lat": 30.23, "elv": 5.0}, {"name": "MELBOURNE", "long": 80.39, "icao": "KMLB", "state": "FLORIDA", "abbr": "FL", "lat": 28.06, "elv": 11.0}, {"name": "MIAMI", "long": 80.17, "icao": "KMIA", "state": "FLORIDA", "abbr": "FL", "lat": 25.48, "elv": 3.0}, {"name": "NAPLES MUNICIPAL", "long": 81.46, "icao": "KAPF", "state": "FLORIDA", "abbr": "FL", "lat": 26.09, "elv": 3.0}, {"name": "NASA SHUTTLE FCL", "long": 80.43, "icao": "KTTS", "state": "FLORIDA", "abbr": "FL", "lat": 28.37, "elv": 3.0}, {"name": "NEW SMYRNA BEACH", "long": 80.57, "icao": "KEVB", "state": "FLORIDA", "abbr": "FL", "lat": 29.03, "elv": 3.0}, {"name": "OCALA MUNI", "long": 82.13, "icao": "KOCF", "state": "FLORIDA", "abbr": "FL", "lat": 29.1, "elv": 27.0}, {"name": "OKEECHOBEE CTY", "long": 80.51, "icao": "KOBE", "state": "FLORIDA", "abbr": "FL", "lat": 27.16, "elv": 11.0}, {"name": "ORLANDO", "long": 81.2, "icao": "KMCO", "state": "FLORIDA", "abbr": "FL", "lat": 28.25, "elv": 29.0}, {"name": "ORLANDO", "long": 81.2, "icao": "KORL", "state": "FLORIDA", "abbr": "FL", "lat": 28.33, "elv": 37.0}, {"name": "ORMOND BEACH VOR", "long": 81.07, "icao": "KOMN", "state": "FLORIDA", "abbr": "FL", "lat": 29.18, "elv": 9.0}, {"name": "PALM COAST", "long": 81.12, "icao": "KXFL", "state": "FLORIDA", "abbr": "FL", "lat": 29.28, "elv": 10.0}, {"name": "PANAMA CITY", "long": 85.48, "icao": "KECP", "state": "FLORIDA", "abbr": "FL", "lat": 30.21, "elv": 21.0}, {"name": "PENSACOLA", "long": 87.11, "icao": "KPNS", "state": "FLORIDA", "abbr": "FL", "lat": 30.29, "elv": 38.0}, {"name": "PENSACOLA NAS", "long": 87.19, "icao": "KNPA", "state": "FLORIDA", "abbr": "FL", "lat": 30.21, "elv": 9.0}, {"name": "PERRY FOLEY", "long": 83.34, "icao": "K40J", "state": "FLORIDA", "abbr": "FL", "lat": 30.04, "elv": 13.0}, {"name": "PLANT CITY MUNI", "long": 82.1, "icao": "KPCM", "state": "FLORIDA", "abbr": "FL", "lat": 28.0, "elv": 47.0}, {"name": "POMPANO BEACH", "long": 80.07, "icao": "KPMP", "state": "FLORIDA", "abbr": "FL", "lat": 26.15, "elv": 6.0}, {"name": "PUNTA GORDA", "long": 82.0, "icao": "KPGD", "state": "FLORIDA", "abbr": "FL", "lat": 26.55, "elv": 7.0}, {"name": "QUINCY", "long": 84.33, "icao": "K2J9", "state": "FLORIDA", "abbr": "FL", "lat": 30.36, "elv": 69.0}, {"name": "ST AUGUSTINE", "long": 81.19, "icao": "KSGJ", "state": "FLORIDA", "abbr": "FL", "lat": 29.58, "elv": 3.0}, {"name": "ST PETERSBURG", "long": 82.41, "icao": "KPIE", "state": "FLORIDA", "abbr": "FL", "lat": 27.55, "elv": 4.0}, {"name": "TALLAHASSEE", "long": 84.21, "icao": "KTLH", "state": "FLORIDA", "abbr": "FL", "lat": 30.24, "elv": 19.0}, {"name": "TAMPA", "long": 82.32, "icao": "KTPA", "state": "FLORIDA", "abbr": "FL", "lat": 27.58, "elv": 11.0}, {"name": "TITUSVILLE", "long": 80.48, "icao": "KTIX", "state": "FLORIDA", "abbr": "FL", "lat": 28.3, "elv": 11.0}, {"name": "TYNDALL AFB", "long": 85.34, "icao": "KPAM", "state": "FLORIDA", "abbr": "FL", "lat": 30.04, "elv": 5.0}, {"name": "VENICE", "long": 82.26, "icao": "KVNC", "state": "FLORIDA", "abbr": "FL", "lat": 27.04, "elv": 6.0}, {"name": "VERO BEACH", "long": 80.25, "icao": "KVRB", "state": "FLORIDA", "abbr": "FL", "lat": 27.39, "elv": 10.0}, {"name": "THE VILLAGES", "long": 81.58, "icao": "KVVG", "state": "FLORIDA", "abbr": "FL", "lat": 28.57, "elv": 27.0}, {"name": "WEST PALM BEACH", "long": 80.06, "icao": "KPBI", "state": "FLORIDA", "abbr": "FL", "lat": 26.41, "elv": 6.0}, {"name": "WHITING FLD NAS", "long": 87.01, "icao": "KNSE", "state": "FLORIDA", "abbr": "FL", "lat": 30.43, "elv": 61.0}, {"name": "WINTER HAVEN", "long": 81.45, "icao": "KGIF", "state": "FLORIDA", "abbr": "FL", "lat": 28.04, "elv": 43.0}, {"name": "ALBANY", "long": 84.12, "icao": "KABY", "state": "GEORGIA", "abbr": "GA", "lat": 31.32, "elv": 58.0}, {"name": "AMERICUS", "long": 84.11, "icao": "KACJ", "state": "GEORGIA", "abbr": "GA", "lat": 32.07, "elv": 143.0}, {"name": "ALMA", "long": 82.3, "icao": "KAMG", "state": "GEORGIA", "abbr": "GA", "lat": 31.32, "elv": 59.0}, {"name": "ATHENS", "long": 83.2, "icao": "KAHN", "state": "GEORGIA", "abbr": "GA", "lat": 33.57, "elv": 244.0}, {"name": "ATLANTA", "long": 84.27, "icao": "KATL", "state": "GEORGIA", "abbr": "GA", "lat": 33.38, "elv": 296.0}, {"name": "BAINBRIDGE", "long": 84.38, "icao": "KBGE", "state": "GEORGIA", "abbr": "GA", "lat": 30.58, "elv": 43.0}, {"name": "BLAKELY EARLY C", "long": 84.54, "icao": "KBIJ", "state": "GEORGIA", "abbr": "GA", "lat": 31.24, "elv": 65.0}, {"name": "BRUNSWICK", "long": 81.23, "icao": "KSSI", "state": "GEORGIA", "abbr": "GA", "lat": 31.09, "elv": 6.0}, {"name": "BUTLER", "long": 84.15, "icao": "K6A1", "state": "GEORGIA", "abbr": "GA", "lat": 32.34, "elv": 203.0}, {"name": "CARTERSVILLE", "long": 84.51, "icao": "KVPC", "state": "GEORGIA", "abbr": "GA", "lat": 34.08, "elv": 222.0}, {"name": "COLUMBUS", "long": 84.57, "icao": "KCSG", "state": "GEORGIA", "abbr": "GA", "lat": 32.31, "elv": 135.0}, {"name": "COVINGTON", "long": 83.51, "icao": "K9A1", "state": "GEORGIA", "abbr": "GA", "lat": 33.38, "elv": 247.0}, {"name": "DALTON", "long": 84.52, "icao": "KDNN", "state": "GEORGIA", "abbr": "GA", "lat": 34.43, "elv": 216.0}, {"name": "DOUGLAS MUNI", "long": 82.52, "icao": "KDQH", "state": "GEORGIA", "abbr": "GA", "lat": 31.29, "elv": 78.0}, {"name": "DUBLIN", "long": 82.59, "icao": "KDBN", "state": "GEORGIA", "abbr": "GA", "lat": 32.34, "elv": 94.0}, {"name": "EASTMAN", "long": 83.08, "icao": "KEZM", "state": "GEORGIA", "abbr": "GA", "lat": 32.13, "elv": 93.0}, {"name": "GAINESVILLE", "long": 83.5, "icao": "KGVL", "state": "GEORGIA", "abbr": "GA", "lat": 34.16, "elv": 386.0}, {"name": "GREENSBORO", "long": 83.08, "icao": "K3J7", "state": "GEORGIA", "abbr": "GA", "lat": 33.36, "elv": 206.0}, {"name": "HOMERVILLE", "long": 82.47, "icao": "KHOE", "state": "GEORGIA", "abbr": "GA", "lat": 31.03, "elv": 57.0}, {"name": "JEFFERSON", "long": 83.34, "icao": "K19A", "state": "GEORGIA", "abbr": "GA", "lat": 34.11, "elv": 290.0}, {"name": "LA GRANGE", "long": 85.04, "icao": "KLGC", "state": "GEORGIA", "abbr": "GA", "lat": 33.0, "elv": 211.0}, {"name": "LAWRENCEVILLE", "long": 83.58, "icao": "KLZU", "state": "GEORGIA", "abbr": "GA", "lat": 33.59, "elv": 323.0}, {"name": "MACON", "long": 83.39, "icao": "KMCN", "state": "GEORGIA", "abbr": "GA", "lat": 32.41, "elv": 109.0}, {"name": "MARIETTA MCCOLUM", "long": 84.36, "icao": "KRYY", "state": "GEORGIA", "abbr": "GA", "lat": 34.01, "elv": 317.0}, {"name": "MILLEDGEVILLE", "long": 83.14, "icao": "KMLJ", "state": "GEORGIA", "abbr": "GA", "lat": 33.09, "elv": 117.0}, {"name": "MOULTRIE MUNI", "long": 83.48, "icao": "KMGR", "state": "GEORGIA", "abbr": "GA", "lat": 31.05, "elv": 90.0}, {"name": "NEWNAN", "long": 84.46, "icao": "KCCO", "state": "GEORGIA", "abbr": "GA", "lat": 33.19, "elv": 296.0}, {"name": "PEACHTREE CITY", "long": 84.34, "icao": "KFFC", "state": "GEORGIA", "abbr": "GA", "lat": 33.21, "elv": 262.0}, {"name": "ROME", "long": 85.1, "icao": "KRMG", "state": "GEORGIA", "abbr": "GA", "lat": 34.21, "elv": 193.0}, {"name": "SAVANNAH", "long": 81.12, "icao": "KSAV", "state": "GEORGIA", "abbr": "GA", "lat": 32.07, "elv": 14.0}, {"name": "STATESBORO", "long": 81.44, "icao": "KTBR", "state": "GEORGIA", "abbr": "GA", "lat": 32.29, "elv": 57.0}, {"name": "SWAINSBORO", "long": 82.22, "icao": "KSBO", "state": "GEORGIA", "abbr": "GA", "lat": 32.37, "elv": 100.0}, {"name": "SYLVANIA", "long": 81.36, "icao": "KJYL", "state": "GEORGIA", "abbr": "GA", "lat": 32.39, "elv": 57.0}, {"name": "TIFTON", "long": 83.29, "icao": "KTMA", "state": "GEORGIA", "abbr": "GA", "lat": 31.26, "elv": 109.0}, {"name": "THOMASTON UPSON", "long": 84.16, "icao": "KOPN", "state": "GEORGIA", "abbr": "GA", "lat": 32.57, "elv": 243.0}, {"name": "THOMASVILLE", "long": 83.53, "icao": "KTVI", "state": "GEORGIA", "abbr": "GA", "lat": 30.54, "elv": 80.0}, {"name": "VALDOSTA REGIONA", "long": 83.16, "icao": "KVLD", "state": "GEORGIA", "abbr": "GA", "lat": 30.46, "elv": 62.0}, {"name": "VIDALIA MUNI", "long": 82.22, "icao": "KVDI", "state": "GEORGIA", "abbr": "GA", "lat": 32.12, "elv": 84.0}, {"name": "WARNER ROBINS AF", "long": 83.35, "icao": "KWRB", "state": "GEORGIA", "abbr": "GA", "lat": 32.37, "elv": 90.0}, {"name": "WASHINGTON", "long": 82.49, "icao": "KIIY", "state": "GEORGIA", "abbr": "GA", "lat": 33.47, "elv": 197.0}, {"name": "BOISE", "long": 116.14, "icao": "KBOI", "state": "IDAHO", "abbr": "ID", "lat": 43.34, "elv": 875.0}, {"name": "BURLEY", "long": 113.46, "icao": "KBYI", "state": "IDAHO", "abbr": "ID", "lat": 42.33, "elv": 1264.0}, {"name": "BONNERS FERRY", "long": 116.18, "icao": "K65S", "state": "IDAHO", "abbr": "ID", "lat": 48.44, "elv": 713.0}, {"name": "CALDWELL", "long": 116.37, "icao": "KEUL", "state": "IDAHO", "abbr": "ID", "lat": 43.37, "elv": 740.0}, {"name": "CHALLIS", "long": 114.13, "icao": "KLLJ", "state": "IDAHO", "abbr": "ID", "lat": 44.31, "elv": 1536.0}, {"name": "DRIGGS REED MEM", "long": 111.06, "icao": "KDIJ", "state": "IDAHO", "abbr": "ID", "lat": 43.45, "elv": 1899.0}, {"name": "GRANGEVILLE", "long": 116.07, "icao": "KGIC", "state": "IDAHO", "abbr": "ID", "lat": 45.57, "elv": 1009.0}, {"name": "IDAHO FALLS", "long": 112.04, "icao": "KIDA", "state": "IDAHO", "abbr": "ID", "lat": 43.31, "elv": 1453.0}, {"name": "JEROME COUNTY", "long": 114.27, "icao": "KJER", "state": "IDAHO", "abbr": "ID", "lat": 42.43, "elv": 1222.0}, {"name": "LEWISTON", "long": 117.01, "icao": "KLWS", "state": "IDAHO", "abbr": "ID", "lat": 46.22, "elv": 438.0}, {"name": "MCCALL", "long": 116.06, "icao": "KMYL", "state": "IDAHO", "abbr": "ID", "lat": 44.53, "elv": 1533.0}, {"name": "MOUNTAIN HOME", "long": 115.52, "icao": "KMUO", "state": "IDAHO", "abbr": "ID", "lat": 43.02, "elv": 913.0}, {"name": "MULLAN PASS", "long": 115.4, "icao": "KMLP", "state": "IDAHO", "abbr": "ID", "lat": 47.27, "elv": 1837.0}, {"name": "NAMPA", "long": 116.31, "icao": "KMAN", "state": "IDAHO", "abbr": "ID", "lat": 43.35, "elv": 774.0}, {"name": "POCATELLO", "long": 112.34, "icao": "KPIH", "state": "IDAHO", "abbr": "ID", "lat": 42.55, "elv": 1359.0}, {"name": "REXBURG", "long": 111.48, "icao": "KRXE", "state": "IDAHO", "abbr": "ID", "lat": 43.5, "elv": 1480.0}, {"name": "SODA SPRINGS", "long": 111.34, "icao": "KU78", "state": "IDAHO", "abbr": "ID", "lat": 42.38, "elv": 1780.0}, {"name": "STANLEY", "long": 114.56, "icao": "KSNT", "state": "IDAHO", "abbr": "ID", "lat": 44.1, "elv": 1980.0}, {"name": "TWIN FALLS", "long": 114.29, "icao": "KTWF", "state": "IDAHO", "abbr": "ID", "lat": 42.29, "elv": 1266.0}, {"name": "CAIRO", "long": 89.13, "icao": "KCIR", "state": "ILLINOIS", "abbr": "IL", "lat": 37.04, "elv": 98.0}, {"name": "CENTRALIA", "long": 89.06, "icao": "KENL", "state": "ILLINOIS", "abbr": "IL", "lat": 38.31, "elv": 163.0}, {"name": "CHICAGO", "long": 87.45, "icao": "KMDW", "state": "ILLINOIS", "abbr": "IL", "lat": 41.47, "elv": 188.0}, {"name": "DANVILLE", "long": 87.36, "icao": "KDNV", "state": "ILLINOIS", "abbr": "IL", "lat": 40.12, "elv": 212.0}, {"name": "DECATUR", "long": 88.51, "icao": "KDEC", "state": "ILLINOIS", "abbr": "IL", "lat": 39.5, "elv": 207.0}, {"name": "DE KALB", "long": 88.42, "icao": "KDKB", "state": "ILLINOIS", "abbr": "IL", "lat": 41.56, "elv": 279.0}, {"name": "EFFINGHAM", "long": 88.32, "icao": "K1H2", "state": "ILLINOIS", "abbr": "IL", "lat": 39.04, "elv": 179.0}, {"name": "FAIRFIELD", "long": 88.25, "icao": "KFWC", "state": "ILLINOIS", "abbr": "IL", "lat": 38.23, "elv": 133.0}, {"name": "FREEPORT", "long": 89.35, "icao": "KFEP", "state": "ILLINOIS", "abbr": "IL", "lat": 42.15, "elv": 262.0}, {"name": "FLORA", "long": 88.27, "icao": "KFOA", "state": "ILLINOIS", "abbr": "IL", "lat": 38.4, "elv": 144.0}, {"name": "GALESBURG", "long": 90.26, "icao": "KGBG", "state": "ILLINOIS", "abbr": "IL", "lat": 40.56, "elv": 233.0}, {"name": "HARRISBURG", "long": 88.33, "icao": "KHSB", "state": "ILLINOIS", "abbr": "IL", "lat": 37.49, "elv": 121.0}, {"name": "JACKSONVILLE", "long": 90.14, "icao": "KIJX", "state": "ILLINOIS", "abbr": "IL", "lat": 39.46, "elv": 190.0}, {"name": "JOLIET", "long": 88.1, "icao": "KJOT", "state": "ILLINOIS", "abbr": "IL", "lat": 41.31, "elv": 177.0}, {"name": "KANKAKEE", "long": 87.51, "icao": "KIKK", "state": "ILLINOIS", "abbr": "IL", "lat": 41.04, "elv": 192.0}, {"name": "LACON", "long": 89.23, "icao": "KC75", "state": "ILLINOIS", "abbr": "IL", "lat": 41.01, "elv": 173.0}, {"name": "LAWRENCEVILLE", "long": 87.36, "icao": "KLWV", "state": "ILLINOIS", "abbr": "IL", "lat": 38.46, "elv": 131.0}, {"name": "LINCOLN", "long": 89.2, "icao": "KAAA", "state": "ILLINOIS", "abbr": "IL", "lat": 40.1, "elv": 182.0}, {"name": "LITCHFIELD MUNI", "long": 89.4, "icao": "K3LF", "state": "ILLINOIS", "abbr": "IL", "lat": 39.1, "elv": 210.0}, {"name": "MACOMB MUNI", "long": 90.39, "icao": "KMQB", "state": "ILLINOIS", "abbr": "IL", "lat": 40.31, "elv": 215.0}, {"name": "MARION REGIONAL", "long": 89.01, "icao": "KMWA", "state": "ILLINOIS", "abbr": "IL", "lat": 37.45, "elv": 144.0}, {"name": "METROPOLIS", "long": 88.45, "icao": "KM30", "state": "ILLINOIS", "abbr": "IL", "lat": 37.11, "elv": 117.0}, {"name": "MOUNT CARMEL", "long": 87.44, "icao": "KAJG", "state": "ILLINOIS", "abbr": "IL", "lat": 38.36, "elv": 131.0}, {"name": "MOUNT VERNON", "long": 88.52, "icao": "KMVN", "state": "ILLINOIS", "abbr": "IL", "lat": 38.19, "elv": 146.0}, {"name": "PALWAUKEE", "long": 87.54, "icao": "KPWK", "state": "ILLINOIS", "abbr": "IL", "lat": 42.07, "elv": 203.0}, {"name": "PEORIA", "long": 89.41, "icao": "KPIA", "state": "ILLINOIS", "abbr": "IL", "lat": 40.4, "elv": 205.0}, {"name": "PARIS", "long": 87.4, "icao": "KPRG", "state": "ILLINOIS", "abbr": "IL", "lat": 39.42, "elv": 199.0}, {"name": "PERU", "long": 89.09, "icao": "KVYS", "state": "ILLINOIS", "abbr": "IL", "lat": 41.21, "elv": 199.0}, {"name": "PITTSFIELD", "long": 90.47, "icao": "KPPQ", "state": "ILLINOIS", "abbr": "IL", "lat": 39.38, "elv": 216.0}, {"name": "PONTIAC", "long": 88.38, "icao": "KPNT", "state": "ILLINOIS", "abbr": "IL", "lat": 40.55, "elv": 201.0}, {"name": "RANTOUL", "long": 88.09, "icao": "KTIP", "state": "ILLINOIS", "abbr": "IL", "lat": 40.18, "elv": 225.0}, {"name": "ROBINSON MUNI", "long": 87.39, "icao": "KRSV", "state": "ILLINOIS", "abbr": "IL", "lat": 39.01, "elv": 141.0}, {"name": "ROCKFORD", "long": 89.06, "icao": "KRFD", "state": "ILLINOIS", "abbr": "IL", "lat": 42.12, "elv": 221.0}, {"name": "SPARTA", "long": 89.42, "icao": "KSAR", "state": "ILLINOIS", "abbr": "IL", "lat": 38.09, "elv": 164.0}, {"name": "SPRINGFIELD", "long": 89.41, "icao": "KSPI", "state": "ILLINOIS", "abbr": "IL", "lat": 39.51, "elv": 181.0}, {"name": "STERLING ROCKFAL", "long": 89.4, "icao": "KSQI", "state": "ILLINOIS", "abbr": "IL", "lat": 41.45, "elv": 197.0}, {"name": "TAYLORVILLE", "long": 89.2, "icao": "KTAZ", "state": "ILLINOIS", "abbr": "IL", "lat": 39.32, "elv": 190.0}, {"name": "WAUKEGAN", "long": 87.52, "icao": "KUGN", "state": "ILLINOIS", "abbr": "IL", "lat": 42.25, "elv": 222.0}, {"name": "ANDERSON MUNICIP", "long": 85.37, "icao": "KAID", "state": "INDIANA", "abbr": "IN", "lat": 40.07, "elv": 280.0}, {"name": "AUBURN DEKALB C", "long": 85.04, "icao": "KGWB", "state": "INDIANA", "abbr": "IN", "lat": 41.18, "elv": 269.0}, {"name": "BLOOMINGTON", "long": 86.37, "icao": "KBMG", "state": "INDIANA", "abbr": "IN", "lat": 39.09, "elv": 257.0}, {"name": "ELKHART MUNICIPA", "long": 86.0, "icao": "KEKM", "state": "INDIANA", "abbr": "IN", "lat": 41.43, "elv": 237.0}, {"name": "EVANSVILLE", "long": 87.31, "icao": "KEVV", "state": "INDIANA", "abbr": "IN", "lat": 38.03, "elv": 117.0}, {"name": "FORT WAYNE", "long": 85.11, "icao": "KFWA", "state": "INDIANA", "abbr": "IN", "lat": 40.59, "elv": 248.0}, {"name": "GARY REGIONAL", "long": 87.25, "icao": "KGYY", "state": "INDIANA", "abbr": "IN", "lat": 41.37, "elv": 180.0}, {"name": "GOSHEN", "long": 85.47, "icao": "KGSH", "state": "INDIANA", "abbr": "IN", "lat": 41.32, "elv": 252.0}, {"name": "HUNTINGBURG", "long": 86.57, "icao": "KHNB", "state": "INDIANA", "abbr": "IN", "lat": 38.15, "elv": 161.0}, {"name": "INDIANAPOLIS", "long": 86.18, "icao": "KEYE", "state": "INDIANA", "abbr": "IN", "lat": 39.5, "elv": 248.0}, {"name": "INDIANAPOLIS", "long": 86.18, "icao": "KIND", "state": "INDIANA", "abbr": "IN", "lat": 39.43, "elv": 241.0}, {"name": "INDIANAPOLIS EXC", "long": 86.15, "icao": "KTYQ", "state": "INDIANA", "abbr": "IN", "lat": 40.02, "elv": 281.0}, {"name": "KNOX STARKE CTY", "long": 86.4, "icao": "KOXI", "state": "INDIANA", "abbr": "IN", "lat": 41.2, "elv": 209.0}, {"name": "KOKOMO", "long": 86.04, "icao": "KOKK", "state": "INDIANA", "abbr": "IN", "lat": 40.32, "elv": 253.0}, {"name": "LAFAYETTE", "long": 86.56, "icao": "KLAF", "state": "INDIANA", "abbr": "IN", "lat": 40.25, "elv": 182.0}, {"name": "LOGANSPORT", "long": 86.22, "icao": "KGGP", "state": "INDIANA", "abbr": "IN", "lat": 40.43, "elv": 225.0}, {"name": "MARION MUNI", "long": 85.41, "icao": "KMZZ", "state": "INDIANA", "abbr": "IN", "lat": 40.29, "elv": 262.0}, {"name": "MUNCIE", "long": 85.24, "icao": "KMIE", "state": "INDIANA", "abbr": "IN", "lat": 40.14, "elv": 285.0}, {"name": "RENSSELAER", "long": 87.11, "icao": "KRZL", "state": "INDIANA", "abbr": "IN", "lat": 40.57, "elv": 213.0}, {"name": "ROCHESTER", "long": 86.11, "icao": "KRCR", "state": "INDIANA", "abbr": "IN", "lat": 41.04, "elv": 241.0}, {"name": "SHELBYVILLE", "long": 85.48, "icao": "KGEZ", "state": "INDIANA", "abbr": "IN", "lat": 39.35, "elv": 245.0}, {"name": "SOUTH BEND", "long": 86.19, "icao": "KSBN", "state": "INDIANA", "abbr": "IN", "lat": 41.42, "elv": 237.0}, {"name": "TERRE HAUTE", "long": 87.2, "icao": "KHUF", "state": "INDIANA", "abbr": "IN", "lat": 39.27, "elv": 179.0}, {"name": "VALPARAISO", "long": 87.0, "icao": "KVPZ", "state": "INDIANA", "abbr": "IN", "lat": 41.27, "elv": 231.0}, {"name": "WARSAW MUNI", "long": 85.5, "icao": "KASW", "state": "INDIANA", "abbr": "IN", "lat": 41.16, "elv": 259.0}, {"name": "ALGONA", "long": 94.16, "icao": "KAXA", "state": "IOWA", "abbr": "IA", "lat": 43.04, "elv": 372.0}, {"name": "AMES", "long": 93.37, "icao": "KAMW", "state": "IOWA", "abbr": "IA", "lat": 41.59, "elv": 279.0}, {"name": "ANKENY", "long": 93.34, "icao": "KIKV", "state": "IOWA", "abbr": "IA", "lat": 41.41, "elv": 275.0}, {"name": "ATLANTIC", "long": 95.02, "icao": "KAIO", "state": "IOWA", "abbr": "IA", "lat": 41.23, "elv": 360.0}, {"name": "AUDUBON", "long": 94.55, "icao": "KADU", "state": "IOWA", "abbr": "IA", "lat": 41.42, "elv": 392.0}, {"name": "BOONE MUNI", "long": 93.5, "icao": "KBNW", "state": "IOWA", "abbr": "IA", "lat": 42.02, "elv": 354.0}, {"name": "BURLINGTON", "long": 91.08, "icao": "KBRL", "state": "IOWA", "abbr": "IA", "lat": 40.46, "elv": 211.0}, {"name": "CARROLL", "long": 94.46, "icao": "KCIN", "state": "IOWA", "abbr": "IA", "lat": 42.02, "elv": 375.0}, {"name": "CEDAR RAPIDS", "long": 91.43, "icao": "KCID", "state": "IOWA", "abbr": "IA", "lat": 41.53, "elv": 264.0}, {"name": "CENTERVILLE MUNI", "long": 92.54, "icao": "KTVK", "state": "IOWA", "abbr": "IA", "lat": 40.41, "elv": 314.0}, {"name": "CHARITON", "long": 93.22, "icao": "KCNC", "state": "IOWA", "abbr": "IA", "lat": 41.01, "elv": 320.0}, {"name": "CHARLES CITY", "long": 92.37, "icao": "KCCY", "state": "IOWA", "abbr": "IA", "lat": 43.04, "elv": 343.0}, {"name": "CHEROKEE", "long": 95.33, "icao": "KCKP", "state": "IOWA", "abbr": "IA", "lat": 42.44, "elv": 374.0}, {"name": "CLARINDA", "long": 95.01, "icao": "KICL", "state": "IOWA", "abbr": "IA", "lat": 40.43, "elv": 303.0}, {"name": "CLARION", "long": 93.46, "icao": "KCAV", "state": "IOWA", "abbr": "IA", "lat": 42.45, "elv": 354.0}, {"name": "CLINTON MUNI", "long": 90.19, "icao": "KCWI", "state": "IOWA", "abbr": "IA", "lat": 41.49, "elv": 216.0}, {"name": "COUNCIL BLUFFS", "long": 95.46, "icao": "KCBF", "state": "IOWA", "abbr": "IA", "lat": 41.16, "elv": 382.0}, {"name": "CRESTON", "long": 94.22, "icao": "KCSQ", "state": "IOWA", "abbr": "IA", "lat": 41.01, "elv": 394.0}, {"name": "DECORAH", "long": 91.43, "icao": "KDEH", "state": "IOWA", "abbr": "IA", "lat": 43.16, "elv": 353.0}, {"name": "DENISON", "long": 95.22, "icao": "KDNS", "state": "IOWA", "abbr": "IA", "lat": 41.58, "elv": 388.0}, {"name": "DES MOINES", "long": 93.4, "icao": "KDSM", "state": "IOWA", "abbr": "IA", "lat": 41.32, "elv": 295.0}, {"name": "DUBUQUE", "long": 90.42, "icao": "KDBQ", "state": "IOWA", "abbr": "IA", "lat": 42.24, "elv": 326.0}, {"name": "ESTHERVILLE", "long": 94.45, "icao": "KEST", "state": "IOWA", "abbr": "IA", "lat": 43.24, "elv": 401.0}, {"name": "FAIRFIELD", "long": 91.58, "icao": "KFFL", "state": "IOWA", "abbr": "IA", "lat": 41.02, "elv": 244.0}, {"name": "FOREST CITY", "long": 93.37, "icao": "KFXY", "state": "IOWA", "abbr": "IA", "lat": 43.14, "elv": 375.0}, {"name": "FORT DODGE", "long": 94.1, "icao": "KFOD", "state": "IOWA", "abbr": "IA", "lat": 42.32, "elv": 355.0}, {"name": "FORT MADISON", "long": 91.19, "icao": "KFSW", "state": "IOWA", "abbr": "IA", "lat": 40.4, "elv": 221.0}, {"name": "GRINNELL REG", "long": 92.44, "icao": "KGGI", "state": "IOWA", "abbr": "IA", "lat": 41.43, "elv": 307.0}, {"name": "HARLAN MUNI", "long": 95.2, "icao": "KHNR", "state": "IOWA", "abbr": "IA", "lat": 41.35, "elv": 375.0}, {"name": "INDEPENDENCE", "long": 91.57, "icao": "KIIB", "state": "IOWA", "abbr": "IA", "lat": 42.27, "elv": 298.0}, {"name": "IOWA CITY", "long": 91.33, "icao": "KIOW", "state": "IOWA", "abbr": "IA", "lat": 41.38, "elv": 198.0}, {"name": "IOWA FALLS MUNI", "long": 93.16, "icao": "KIFA", "state": "IOWA", "abbr": "IA", "lat": 42.28, "elv": 347.0}, {"name": "KEOKUK MUNI", "long": 91.25, "icao": "KEOK", "state": "IOWA", "abbr": "IA", "lat": 40.28, "elv": 205.0}, {"name": "KNOXVILLE", "long": 93.07, "icao": "KOXV", "state": "IOWA", "abbr": "IA", "lat": 41.17, "elv": 283.0}, {"name": "LAMONI", "long": 93.54, "icao": "KLWD", "state": "IOWA", "abbr": "IA", "lat": 40.38, "elv": 346.0}, {"name": "LE MARS", "long": 96.12, "icao": "KLRJ", "state": "IOWA", "abbr": "IA", "lat": 42.46, "elv": 365.0}, {"name": "MARSHALLTOWN", "long": 92.55, "icao": "KMIW", "state": "IOWA", "abbr": "IA", "lat": 42.07, "elv": 296.0}, {"name": "MASON CITY", "long": 93.2, "icao": "KMCW", "state": "IOWA", "abbr": "IA", "lat": 43.09, "elv": 369.0}, {"name": "MONTICELLO MUNI", "long": 91.1, "icao": "KMXO", "state": "IOWA", "abbr": "IA", "lat": 42.13, "elv": 259.0}, {"name": "MT PLEASANT", "long": 91.31, "icao": "KMPZ", "state": "IOWA", "abbr": "IA", "lat": 40.57, "elv": 224.0}, {"name": "MUSCATINE", "long": 91.09, "icao": "KMUT", "state": "IOWA", "abbr": "IA", "lat": 41.22, "elv": 167.0}, {"name": "NEWTON MUNI", "long": 93.01, "icao": "KTNU", "state": "IOWA", "abbr": "IA", "lat": 41.4, "elv": 290.0}, {"name": "OELWEN", "long": 91.58, "icao": "KOLZ", "state": "IOWA", "abbr": "IA", "lat": 42.4, "elv": 328.0}, {"name": "ORANGE CITY", "long": 96.04, "icao": "KORC", "state": "IOWA", "abbr": "IA", "lat": 42.58, "elv": 431.0}, {"name": "OSCEOLA MUNI", "long": 93.41, "icao": "KI75", "state": "IOWA", "abbr": "IA", "lat": 41.03, "elv": 339.0}, {"name": "OSKALOOSA MUNI", "long": 92.3, "icao": "KOOA", "state": "IOWA", "abbr": "IA", "lat": 41.14, "elv": 256.0}, {"name": "OTTUMWA", "long": 92.27, "icao": "KOTM", "state": "IOWA", "abbr": "IA", "lat": 41.06, "elv": 256.0}, {"name": "PELLA", "long": 92.57, "icao": "KPEA", "state": "IOWA", "abbr": "IA", "lat": 41.24, "elv": 270.0}, {"name": "PERRY MUNI", "long": 94.1, "icao": "KPRO", "state": "IOWA", "abbr": "IA", "lat": 41.5, "elv": 308.0}, {"name": "RED OAK", "long": 95.16, "icao": "KRDK", "state": "IOWA", "abbr": "IA", "lat": 41.01, "elv": 318.0}, {"name": "SHELDON", "long": 95.49, "icao": "KSHL", "state": "IOWA", "abbr": "IA", "lat": 43.13, "elv": 432.0}, {"name": "SHENANDOAH MUNI", "long": 95.25, "icao": "KSDA", "state": "IOWA", "abbr": "IA", "lat": 40.45, "elv": 296.0}, {"name": "SIOUX CITY", "long": 96.23, "icao": "KSUX", "state": "IOWA", "abbr": "IA", "lat": 42.23, "elv": 338.0}, {"name": "SPENCER", "long": 95.13, "icao": "KSPW", "state": "IOWA", "abbr": "IA", "lat": 43.1, "elv": 403.0}, {"name": "STORM LAKE", "long": 95.13, "icao": "KSLB", "state": "IOWA", "abbr": "IA", "lat": 42.36, "elv": 454.0}, {"name": "VINTON", "long": 92.01, "icao": "KVTI", "state": "IOWA", "abbr": "IA", "lat": 42.13, "elv": 255.0}, {"name": "WASHINGTON", "long": 91.4, "icao": "KAWG", "state": "IOWA", "abbr": "IA", "lat": 41.16, "elv": 230.0}, {"name": "WATERLOO", "long": 92.24, "icao": "KALO", "state": "IOWA", "abbr": "IA", "lat": 42.33, "elv": 264.0}, {"name": "WEBSTER CITY", "long": 93.52, "icao": "KEBS", "state": "IOWA", "abbr": "IA", "lat": 42.25, "elv": 342.0}, {"name": "CHANUTE", "long": 95.29, "icao": "KCNU", "state": "KANSAS", "abbr": "KS", "lat": 37.4, "elv": 297.0}, {"name": "COFFEYVILLE", "long": 95.34, "icao": "KCFV", "state": "KANSAS", "abbr": "KS", "lat": 37.05, "elv": 225.0}, {"name": "CONCORDIA", "long": 97.39, "icao": "KCNK", "state": "KANSAS", "abbr": "KS", "lat": 39.33, "elv": 447.0}, {"name": "DODGE CITY", "long": 99.58, "icao": "KDDC", "state": "KANSAS", "abbr": "KS", "lat": 37.46, "elv": 789.0}, {"name": "ELKHART", "long": 101.54, "icao": "KEHA", "state": "KANSAS", "abbr": "KS", "lat": 37.0, "elv": 1099.0}, {"name": "EMPORIA", "long": 96.12, "icao": "KEMP", "state": "KANSAS", "abbr": "KS", "lat": 38.2, "elv": 367.0}, {"name": "GARDEN CITY", "long": 100.43, "icao": "KGCK", "state": "KANSAS", "abbr": "KS", "lat": 37.55, "elv": 877.0}, {"name": "GOODLAND", "long": 101.42, "icao": "KGLD", "state": "KANSAS", "abbr": "KS", "lat": 39.22, "elv": 1113.0}, {"name": "GREAT BEND", "long": 98.52, "icao": "KGBD", "state": "KANSAS", "abbr": "KS", "lat": 38.21, "elv": 575.0}, {"name": "HAYS MUNI", "long": 99.16, "icao": "KHYS", "state": "KANSAS", "abbr": "KS", "lat": 38.51, "elv": 609.0}, {"name": "HILL CITY", "long": 99.5, "icao": "KHLC", "state": "KANSAS", "abbr": "KS", "lat": 39.22, "elv": 669.0}, {"name": "HUTCHINSON", "long": 97.52, "icao": "KHUT", "state": "KANSAS", "abbr": "KS", "lat": 38.04, "elv": 467.0}, {"name": "INDEPENDENCE", "long": 95.47, "icao": "KIDP", "state": "KANSAS", "abbr": "KS", "lat": 37.1, "elv": 251.0}, {"name": "LAWRENCE", "long": 95.13, "icao": "KLWC", "state": "KANSAS", "abbr": "KS", "lat": 39.01, "elv": 253.0}, {"name": "LIBERAL", "long": 100.58, "icao": "KLBL", "state": "KANSAS", "abbr": "KS", "lat": 37.02, "elv": 879.0}, {"name": "MANHATTAN", "long": 96.41, "icao": "KMHK", "state": "KANSAS", "abbr": "KS", "lat": 39.08, "elv": 317.0}, {"name": "MCCONNELL AFB", "long": 97.16, "icao": "KIAB", "state": "KANSAS", "abbr": "KS", "lat": 37.37, "elv": 418.0}, {"name": "MEDICINE LODGE", "long": 98.33, "icao": "KP28", "state": "KANSAS", "abbr": "KS", "lat": 37.17, "elv": 469.0}, {"name": "NEWTON", "long": 97.16, "icao": "KEWK", "state": "KANSAS", "abbr": "KS", "lat": 38.02, "elv": 467.0}, {"name": "PARSONS", "long": 95.3, "icao": "KPPF", "state": "KANSAS", "abbr": "KS", "lat": 37.2, "elv": 274.0}, {"name": "PITTSBURG", "long": 94.44, "icao": "KPTS", "state": "KANSAS", "abbr": "KS", "lat": 37.27, "elv": 290.0}, {"name": "PRATT INDUST", "long": 98.45, "icao": "KPTT", "state": "KANSAS", "abbr": "KS", "lat": 37.42, "elv": 595.0}, {"name": "RUSSELL", "long": 98.49, "icao": "KRSL", "state": "KANSAS", "abbr": "KS", "lat": 38.52, "elv": 567.0}, {"name": "SALINA", "long": 97.39, "icao": "KSLN", "state": "KANSAS", "abbr": "KS", "lat": 38.47, "elv": 385.0}, {"name": "TOPEKA", "long": 95.38, "icao": "KTOP", "state": "KANSAS", "abbr": "KS", "lat": 39.04, "elv": 268.0}, {"name": "WICHITA", "long": 97.26, "icao": "KICT", "state": "KANSAS", "abbr": "KS", "lat": 37.39, "elv": 407.0}, {"name": "BOWLING GREE", "long": 86.25, "icao": "KBWG", "state": "KENTUCKY", "abbr": "KY", "lat": 36.58, "elv": 168.0}, {"name": "COVINGTON", "long": 84.4, "icao": "KCVG", "state": "KENTUCKY", "abbr": "KY", "lat": 39.03, "elv": 269.0}, {"name": "DANVILLE", "long": 84.46, "icao": "KDVK", "state": "KENTUCKY", "abbr": "KY", "lat": 37.35, "elv": 312.0}, {"name": "HOPKINSVILLE", "long": 87.3, "icao": "KHOP", "state": "KENTUCKY", "abbr": "KY", "lat": 36.4, "elv": 174.0}, {"name": "FRANKFORT", "long": 84.54, "icao": "KFFT", "state": "KENTUCKY", "abbr": "KY", "lat": 38.11, "elv": 236.0}, {"name": "GLASGOW", "long": 85.57, "icao": "KGLW", "state": "KENTUCKY", "abbr": "KY", "lat": 37.02, "elv": 218.0}, {"name": "HARLAN", "long": 83.22, "icao": "KI35", "state": "KENTUCKY", "abbr": "KY", "lat": 36.52, "elv": 473.0}, {"name": "HENDERSON CITY", "long": 87.4, "icao": "KEHR", "state": "KENTUCKY", "abbr": "KY", "lat": 37.49, "elv": 117.0}, {"name": "LEXINGTON", "long": 84.36, "icao": "KLEX", "state": "KENTUCKY", "abbr": "KY", "lat": 38.02, "elv": 300.0}, {"name": "LONDON", "long": 84.04, "icao": "KLOZ", "state": "KENTUCKY", "abbr": "KY", "lat": 37.05, "elv": 362.0}, {"name": "LOUISVILLE", "long": 85.44, "icao": "KSDF", "state": "KENTUCKY", "abbr": "KY", "lat": 38.11, "elv": 146.0}, {"name": "MADISONVILLE", "long": 87.24, "icao": "K2I0", "state": "KENTUCKY", "abbr": "KY", "lat": 37.21, "elv": 134.0}, {"name": "PADUCAH", "long": 88.46, "icao": "KPAH", "state": "KENTUCKY", "abbr": "KY", "lat": 37.04, "elv": 119.0}, {"name": "SOMERSET", "long": 84.37, "icao": "KSME", "state": "KENTUCKY", "abbr": "KY", "lat": 37.03, "elv": 283.0}, {"name": "ABBEVILLE CC MEM", "long": 92.05, "icao": "KIYA", "state": "LOUISIANA", "abbr": "LA", "lat": 29.59, "elv": 5.0}, {"name": "ALEXANDRIA", "long": 92.34, "icao": "KAEX", "state": "LOUISIANA", "abbr": "LA", "lat": 31.2, "elv": 27.0}, {"name": "ALEXANDRIA", "long": 92.17, "icao": "KESF", "state": "LOUISIANA", "abbr": "LA", "lat": 31.24, "elv": 28.0}, {"name": "BARKSDALE AFB", "long": 93.4, "icao": "KBAD", "state": "LOUISIANA", "abbr": "LA", "lat": 32.3, "elv": 51.0}, {"name": "BASTROP MOREHOUS", "long": 91.53, "icao": "KBQP", "state": "LOUISIANA", "abbr": "LA", "lat": 32.45, "elv": 51.0}, {"name": "BATON ROUGE", "long": 91.09, "icao": "KBTR", "state": "LOUISIANA", "abbr": "LA", "lat": 30.32, "elv": 21.0}, {"name": "BOOTHVILLE", "long": 89.24, "icao": "KBVE", "state": "LOUISIANA", "abbr": "LA", "lat": 29.19, "elv": 1.0}, {"name": "FORT POLK FR", "long": 93.12, "icao": "KPOE", "state": "LOUISIANA", "abbr": "LA", "lat": 31.03, "elv": 101.0}, {"name": "PORT FOURCHON", "long": 90.12, "icao": "KXPY", "state": "LOUISIANA", "abbr": "LA", "lat": 29.07, "elv": 2.0}, {"name": "GALLIANO", "long": 90.16, "icao": "KGAO", "state": "LOUISIANA", "abbr": "LA", "lat": 29.27, "elv": 1.0}, {"name": "HAMMOND", "long": 90.25, "icao": "KHDC", "state": "LOUISIANA", "abbr": "LA", "lat": 30.31, "elv": 13.0}, {"name": "OFFSHORE", "long": 88.29, "icao": "KH78", "state": "LOUISIANA", "abbr": "LA", "lat": 28.11, "elv": 43.0}, {"name": "HOUMA TERREBONNE", "long": 90.4, "icao": "KHUM", "state": "LOUISIANA", "abbr": "LA", "lat": 29.34, "elv": 3.0}, {"name": "INTRACOASTAL CIT", "long": 92.07, "icao": "K7R4", "state": "LOUISIANA", "abbr": "LA", "lat": 29.46, "elv": 5.0}, {"name": "LAFAYETTE", "long": 92.0, "icao": "KLFT", "state": "LOUISIANA", "abbr": "LA", "lat": 30.12, "elv": 11.0}, {"name": "LAKE CHARLES", "long": 93.13, "icao": "KLCH", "state": "LOUISIANA", "abbr": "LA", "lat": 30.08, "elv": 4.0}, {"name": "MINDEN", "long": 93.18, "icao": "KMNE", "state": "LOUISIANA", "abbr": "LA", "lat": 32.39, "elv": 85.0}, {"name": "MONROE", "long": 92.02, "icao": "KMLU", "state": "LOUISIANA", "abbr": "LA", "lat": 32.31, "elv": 29.0}, {"name": "NATCHITOCHES", "long": 93.06, "icao": "KIER", "state": "LOUISIANA", "abbr": "LA", "lat": 31.44, "elv": 37.0}, {"name": "NEW IBERIA", "long": 91.53, "icao": "KARA", "state": "LOUISIANA", "abbr": "LA", "lat": 30.02, "elv": 18.0}, {"name": "NEW ORLEANS NAS", "long": 90.01, "icao": "KNBG", "state": "LOUISIANA", "abbr": "LA", "lat": 29.49, "elv": 1.0}, {"name": "OAKDALE ALLEN P", "long": 92.41, "icao": "KACP", "state": "LOUISIANA", "abbr": "LA", "lat": 30.45, "elv": 33.0}, {"name": "RUSTON REGIONAL", "long": 92.35, "icao": "KRSN", "state": "LOUISIANA", "abbr": "LA", "lat": 32.31, "elv": 95.0}, {"name": "PATTERSON MEMORI", "long": 91.19, "icao": "KPTN", "state": "LOUISIANA", "abbr": "LA", "lat": 29.43, "elv": 3.0}, {"name": "SALT POINT", "long": 91.32, "icao": "KP92", "state": "LOUISIANA", "abbr": "LA", "lat": 29.34, "elv": 1.0}, {"name": "SHREVEPORT", "long": 93.5, "icao": "KSHV", "state": "LOUISIANA", "abbr": "LA", "lat": 32.27, "elv": 83.0}, {"name": "SULPHUR", "long": 93.23, "icao": "KUXL", "state": "LOUISIANA", "abbr": "LA", "lat": 30.08, "elv": 4.0}, {"name": "PHI OIL PLATF", "long": 93.11, "icao": "K4C0", "state": "LOUISIANA", "abbr": "LA", "lat": 29.47, "elv": 1.0}, {"name": "ABBEVILLE CC MEM", "long": 92.05, "icao": "K0R3", "state": "LOUISIANA", "abbr": "LA", "lat": 29.59, "elv": 5.0}, {"name": "MINDEN", "long": 93.18, "icao": "KF24", "state": "LOUISIANA", "abbr": "LA", "lat": 32.39, "elv": 85.0}, {"name": "MAGNOLIA OILP", "long": 92.12, "icao": "KGBK", "state": "LOUISIANA", "abbr": "LA", "lat": 27.12, "elv": 59.0}, {"name": "ATLANTIS    OILP", "long": 90.02, "icao": "KATP", "state": "LOUISIANA", "abbr": "LA", "lat": 27.12, "elv": 62.0}, {"name": "AUGUSTA", "long": 69.48, "icao": "KAUG", "state": "MAINE", "abbr": "ME", "lat": 44.19, "elv": 109.0}, {"name": "BANGOR", "long": 68.49, "icao": "KBGR", "state": "MAINE", "abbr": "ME", "lat": 44.48, "elv": 57.0}, {"name": "BAR HARBOR", "long": 68.22, "icao": "KBHB", "state": "MAINE", "abbr": "ME", "lat": 44.27, "elv": 26.0}, {"name": "CARIBOU", "long": 68.01, "icao": "KCAR", "state": "MAINE", "abbr": "ME", "lat": 46.52, "elv": 191.0}, {"name": "CLAYTON LAKE", "long": 69.31, "icao": "K40B", "state": "MAINE", "abbr": "ME", "lat": 46.37, "elv": 314.0}, {"name": "FRENCHVILLE", "long": 68.18, "icao": "KFVE", "state": "MAINE", "abbr": "ME", "lat": 47.17, "elv": 301.0}, {"name": "FRYEBURG", "long": 70.57, "icao": "KIZG", "state": "MAINE", "abbr": "ME", "lat": 43.59, "elv": 135.0}, {"name": "GREENVILLE", "long": 69.33, "icao": "KGNR", "state": "MAINE", "abbr": "ME", "lat": 45.28, "elv": 427.0}, {"name": "HOULTON", "long": 67.48, "icao": "KHUL", "state": "MAINE", "abbr": "ME", "lat": 46.07, "elv": 150.0}, {"name": "MILLINOCKET", "long": 68.42, "icao": "KMLT", "state": "MAINE", "abbr": "ME", "lat": 45.39, "elv": 123.0}, {"name": "PORTLAND", "long": 70.18, "icao": "KPWM", "state": "MAINE", "abbr": "ME", "lat": 43.39, "elv": 15.0}, {"name": "PRESQUE ISLE", "long": 68.02, "icao": "KPQI", "state": "MAINE", "abbr": "ME", "lat": 46.4, "elv": 146.0}, {"name": "SANFORD MUNI", "long": 70.43, "icao": "KSFM", "state": "MAINE", "abbr": "ME", "lat": 43.23, "elv": 74.0}, {"name": "WATERVILLE", "long": 69.4, "icao": "KWVL", "state": "MAINE", "abbr": "ME", "lat": 44.31, "elv": 101.0}, {"name": "WISCASSET", "long": 69.43, "icao": "KIWI", "state": "MAINE", "abbr": "ME", "lat": 43.58, "elv": 20.0}, {"name": "ANDREWS AFB", "long": 76.52, "icao": "KADW", "state": "MARYLAND", "abbr": "MD", "lat": 38.49, "elv": 86.0}, {"name": "CARROLL CNTY", "long": 77.0, "icao": "KDMW", "state": "MARYLAND", "abbr": "MD", "lat": 39.36, "elv": 241.0}, {"name": "COLLEGE PARK", "long": 76.55, "icao": "KCGS", "state": "MARYLAND", "abbr": "MD", "lat": 38.59, "elv": 15.0}, {"name": "CUMBERLAND REG", "long": 78.46, "icao": "KCBE", "state": "MARYLAND", "abbr": "MD", "lat": 39.37, "elv": 236.0}, {"name": "FORT MEADE", "long": 76.46, "icao": "KFME", "state": "MARYLAND", "abbr": "MD", "lat": 39.05, "elv": 46.0}, {"name": "FREDERICK", "long": 77.22, "icao": "KFDK", "state": "MARYLAND", "abbr": "MD", "lat": 39.25, "elv": 92.0}, {"name": "GARRETT CO", "long": 79.2, "icao": "K2G4", "state": "MARYLAND", "abbr": "MD", "lat": 39.35, "elv": 894.0}, {"name": "GAITHERSBURG", "long": 77.1, "icao": "KGAI", "state": "MARYLAND", "abbr": "MD", "lat": 39.1, "elv": 165.0}, {"name": "HAGERSTOWN", "long": 77.44, "icao": "KHGR", "state": "MARYLAND", "abbr": "MD", "lat": 39.42, "elv": 224.0}, {"name": "OCEAN CITY", "long": 75.07, "icao": "KOXB", "state": "MARYLAND", "abbr": "MD", "lat": 38.19, "elv": 3.0}, {"name": "PATUXENT RIVER", "long": 76.24, "icao": "KNHK", "state": "MARYLAND", "abbr": "MD", "lat": 38.16, "elv": 12.0}, {"name": "SALISBURY", "long": 75.3, "icao": "KSBY", "state": "MARYLAND", "abbr": "MD", "lat": 38.2, "elv": 19.0}, {"name": "STEVENSVILLE", "long": 76.2, "icao": "KW29", "state": "MARYLAND", "abbr": "MD", "lat": 38.59, "elv": 15.0}, {"name": "WEBSTER NAVAL", "long": 76.26, "icao": "KNUI", "state": "MARYLAND", "abbr": "MD", "lat": 38.09, "elv": 7.0}, {"name": "BEDFORD", "long": 71.18, "icao": "KBED", "state": "MASSACHUSETTS", "abbr": "MA", "lat": 42.28, "elv": 50.0}, {"name": "BEVERLY", "long": 70.55, "icao": "KBVY", "state": "MASSACHUSETTS", "abbr": "MA", "lat": 42.35, "elv": 28.0}, {"name": "BOSTON", "long": 71.01, "icao": "KBOS", "state": "MASSACHUSETTS", "abbr": "MA", "lat": 42.22, "elv": 6.0}, {"name": "CHATHAM", "long": 70.0, "icao": "KCQX", "state": "MASSACHUSETTS", "abbr": "MA", "lat": 41.41, "elv": 19.0}, {"name": "EAST MILTON", "long": 71.07, "icao": "KMQE", "state": "MASSACHUSETTS", "abbr": "MA", "lat": 42.13, "elv": 199.0}, {"name": "FITCHBURG", "long": 71.45, "icao": "KFIT", "state": "MASSACHUSETTS", "abbr": "MA", "lat": 42.33, "elv": 103.0}, {"name": "HYANNIS", "long": 70.16, "icao": "KHYA", "state": "MASSACHUSETTS", "abbr": "MA", "lat": 41.4, "elv": 22.0}, {"name": "LAWRENCE", "long": 71.08, "icao": "KLWM", "state": "MASSACHUSETTS", "abbr": "MA", "lat": 42.43, "elv": 54.0}, {"name": "MARSHFIELD", "long": 70.4, "icao": "KGHG", "state": "MASSACHUSETTS", "abbr": "MA", "lat": 42.06, "elv": 4.0}, {"name": "MARTHAS VINEYARD", "long": 70.37, "icao": "KMVY", "state": "MASSACHUSETTS", "abbr": "MA", "lat": 41.24, "elv": 16.0}, {"name": "NANTUCKET", "long": 70.04, "icao": "KACK", "state": "MASSACHUSETTS", "abbr": "MA", "lat": 41.15, "elv": 16.0}, {"name": "NEW BEDFORD", "long": 70.57, "icao": "KEWB", "state": "MASSACHUSETTS", "abbr": "MA", "lat": 41.41, "elv": 23.0}, {"name": "NORTH ADAMS", "long": 73.1, "icao": "KAQW", "state": "MASSACHUSETTS", "abbr": "MA", "lat": 42.42, "elv": 199.0}, {"name": "NORWOOD", "long": 71.1, "icao": "KOWD", "state": "MASSACHUSETTS", "abbr": "MA", "lat": 42.11, "elv": 19.0}, {"name": "ORANGE", "long": 72.17, "icao": "KORE", "state": "MASSACHUSETTS", "abbr": "MA", "lat": 42.34, "elv": 164.0}, {"name": "PITTSFIELD", "long": 73.17, "icao": "KPSF", "state": "MASSACHUSETTS", "abbr": "MA", "lat": 42.26, "elv": 355.0}, {"name": "PLYMOUTH", "long": 70.44, "icao": "KPYM", "state": "MASSACHUSETTS", "abbr": "MA", "lat": 41.55, "elv": 43.0}, {"name": "PROVINCETOWN", "long": 70.13, "icao": "KPVC", "state": "MASSACHUSETTS", "abbr": "MA", "lat": 42.04, "elv": 2.0}, {"name": "TAUNTON", "long": 71.01, "icao": "KTAN", "state": "MASSACHUSETTS", "abbr": "MA", "lat": 41.53, "elv": 7.0}, {"name": "WESTFIELD", "long": 72.43, "icao": "KBAF", "state": "MASSACHUSETTS", "abbr": "MA", "lat": 42.1, "elv": 83.0}, {"name": "WORCESTER", "long": 71.52, "icao": "KORH", "state": "MASSACHUSETTS", "abbr": "MA", "lat": 42.16, "elv": 304.0}, {"name": "ADRIAN", "long": 84.05, "icao": "KADG", "state": "MICHIGAN", "abbr": "MI", "lat": 41.52, "elv": 241.0}, {"name": "ALMA", "long": 84.41, "icao": "KAMN", "state": "MICHIGAN", "abbr": "MI", "lat": 43.19, "elv": 230.0}, {"name": "ALPENA", "long": 83.34, "icao": "KAPN", "state": "MICHIGAN", "abbr": "MI", "lat": 45.04, "elv": 210.0}, {"name": "ANN ARBOR", "long": 83.44, "icao": "KARB", "state": "MICHIGAN", "abbr": "MI", "lat": 42.13, "elv": 251.0}, {"name": "BAD AXE", "long": 82.59, "icao": "KBAX", "state": "MICHIGAN", "abbr": "MI", "lat": 43.47, "elv": 234.0}, {"name": "BATTLE CREEK", "long": 85.14, "icao": "KBTL", "state": "MICHIGAN", "abbr": "MI", "lat": 42.19, "elv": 290.0}, {"name": "BELLAIRE", "long": 85.12, "icao": "KACB", "state": "MICHIGAN", "abbr": "MI", "lat": 44.59, "elv": 190.0}, {"name": "BEAVER ISLAND", "long": 85.34, "icao": "KSJX", "state": "MICHIGAN", "abbr": "MI", "lat": 45.42, "elv": 204.0}, {"name": "BENTON HARBOR", "long": 86.25, "icao": "KBEH", "state": "MICHIGAN", "abbr": "MI", "lat": 42.08, "elv": 191.0}, {"name": "BIG RAPIDS", "long": 85.3, "icao": "KRQB", "state": "MICHIGAN", "abbr": "MI", "lat": 43.43, "elv": 302.0}, {"name": "CHARLEVOIX", "long": 85.16, "icao": "KCVX", "state": "MICHIGAN", "abbr": "MI", "lat": 45.18, "elv": 204.0}, {"name": "CHARLOTTE", "long": 84.49, "icao": "KFPK", "state": "MICHIGAN", "abbr": "MI", "lat": 42.34, "elv": 272.0}, {"name": "CHEBOYGAN", "long": 84.31, "icao": "KSLH", "state": "MICHIGAN", "abbr": "MI", "lat": 45.39, "elv": 195.0}, {"name": "CHIPPEWA INTL", "long": 84.28, "icao": "KCIU", "state": "MICHIGAN", "abbr": "MI", "lat": 46.15, "elv": 244.0}, {"name": "COLDWATER", "long": 85.02, "icao": "KOEB", "state": "MICHIGAN", "abbr": "MI", "lat": 41.55, "elv": 292.0}, {"name": "COPPER HARBOR", "long": 87.53, "icao": "KP59", "state": "MICHIGAN", "abbr": "MI", "lat": 47.28, "elv": 190.0}, {"name": "DRUMMOND IS", "long": 83.45, "icao": "KDRM", "state": "MICHIGAN", "abbr": "MI", "lat": 46.0, "elv": 204.0}, {"name": "ESCANABA", "long": 87.01, "icao": "KESC", "state": "MICHIGAN", "abbr": "MI", "lat": 45.45, "elv": 187.0}, {"name": "FLINT", "long": 83.45, "icao": "KFNT", "state": "MICHIGAN", "abbr": "MI", "lat": 42.58, "elv": 233.0}, {"name": "FRANKFORT", "long": 86.12, "icao": "KFKS", "state": "MICHIGAN", "abbr": "MI", "lat": 44.38, "elv": 193.0}, {"name": "FREMONT", "long": 86.0, "icao": "KFFX", "state": "MICHIGAN", "abbr": "MI", "lat": 43.26, "elv": 236.0}, {"name": "GAYLORD", "long": 84.41, "icao": "KGLR", "state": "MICHIGAN", "abbr": "MI", "lat": 45.01, "elv": 407.0}, {"name": "GRAND RAPIDS", "long": 85.31, "icao": "KGRR", "state": "MICHIGAN", "abbr": "MI", "lat": 42.53, "elv": 237.0}, {"name": "GRAYLING AF", "long": 84.44, "icao": "KGOV", "state": "MICHIGAN", "abbr": "MI", "lat": 44.41, "elv": 353.0}, {"name": "HANCOCK", "long": 88.29, "icao": "KCMX", "state": "MICHIGAN", "abbr": "MI", "lat": 47.1, "elv": 326.0}, {"name": "HARBOR SPRINGS", "long": 84.55, "icao": "KMGN", "state": "MICHIGAN", "abbr": "MI", "lat": 45.26, "elv": 209.0}, {"name": "HILLSDALE", "long": 84.35, "icao": "KJYM", "state": "MICHIGAN", "abbr": "MI", "lat": 41.55, "elv": 360.0}, {"name": "HOLLAND", "long": 86.06, "icao": "KBIV", "state": "MICHIGAN", "abbr": "MI", "lat": 42.45, "elv": 208.0}, {"name": "HOUGHTON LAKE", "long": 84.4, "icao": "KHTL", "state": "MICHIGAN", "abbr": "MI", "lat": 44.21, "elv": 351.0}, {"name": "HOWELL", "long": 83.58, "icao": "KOZW", "state": "MICHIGAN", "abbr": "MI", "lat": 42.37, "elv": 293.0}, {"name": "IONIA", "long": 85.04, "icao": "KY70", "state": "MICHIGAN", "abbr": "MI", "lat": 42.56, "elv": 250.0}, {"name": "IRON MOUNTAIN", "long": 88.07, "icao": "KIMT", "state": "MICHIGAN", "abbr": "MI", "lat": 45.49, "elv": 349.0}, {"name": "IRONWOOD", "long": 90.07, "icao": "KIWD", "state": "MICHIGAN", "abbr": "MI", "lat": 46.31, "elv": 375.0}, {"name": "KALAMAZOO", "long": 85.33, "icao": "KAZO", "state": "MICHIGAN", "abbr": "MI", "lat": 42.14, "elv": 272.0}, {"name": "LAMBERTVILLE", "long": 83.39, "icao": "KDUH", "state": "MICHIGAN", "abbr": "MI", "lat": 41.44, "elv": 204.0}, {"name": "LANSING", "long": 84.35, "icao": "KLAN", "state": "MICHIGAN", "abbr": "MI", "lat": 42.47, "elv": 264.0}, {"name": "MACKINAC ISLAND", "long": 84.38, "icao": "KMCD", "state": "MICHIGAN", "abbr": "MI", "lat": 45.51, "elv": 226.0}, {"name": "MANISTEE", "long": 86.15, "icao": "KMBL", "state": "MICHIGAN", "abbr": "MI", "lat": 44.16, "elv": 189.0}, {"name": "MANISTIQUE", "long": 86.1, "icao": "KISQ", "state": "MICHIGAN", "abbr": "MI", "lat": 45.58, "elv": 209.0}, {"name": "MARSHALL", "long": 84.57, "icao": "KRMY", "state": "MICHIGAN", "abbr": "MI", "lat": 42.14, "elv": 287.0}, {"name": "MASON", "long": 84.25, "icao": "KTEW", "state": "MICHIGAN", "abbr": "MI", "lat": 42.34, "elv": 280.0}, {"name": "MENOMINEE", "long": 87.37, "icao": "KMNM", "state": "MICHIGAN", "abbr": "MI", "lat": 45.07, "elv": 191.0}, {"name": "MIDLAND BARSTOW", "long": 84.16, "icao": "KIKW", "state": "MICHIGAN", "abbr": "MI", "lat": 43.4, "elv": 194.0}, {"name": "MONROE", "long": 83.25, "icao": "KTTF", "state": "MICHIGAN", "abbr": "MI", "lat": 41.56, "elv": 188.0}, {"name": "MOUNT PLEASANT", "long": 84.44, "icao": "KMOP", "state": "MICHIGAN", "abbr": "MI", "lat": 43.37, "elv": 230.0}, {"name": "MUNISING LAKESH", "long": 86.39, "icao": "KP53", "state": "MICHIGAN", "abbr": "MI", "lat": 46.25, "elv": 187.0}, {"name": "MUSKEGON", "long": 86.14, "icao": "KMKG", "state": "MICHIGAN", "abbr": "MI", "lat": 43.1, "elv": 191.0}, {"name": "NEWBERRY", "long": 85.27, "icao": "KERY", "state": "MICHIGAN", "abbr": "MI", "lat": 46.18, "elv": 265.0}, {"name": "OWOSSO", "long": 84.08, "icao": "KRNP", "state": "MICHIGAN", "abbr": "MI", "lat": 43.0, "elv": 224.0}, {"name": "PELLSTON", "long": 84.48, "icao": "KPLN", "state": "MICHIGAN", "abbr": "MI", "lat": 45.34, "elv": 217.0}, {"name": "PONTIAC", "long": 83.25, "icao": "KPTK", "state": "MICHIGAN", "abbr": "MI", "lat": 42.4, "elv": 299.0}, {"name": "PORT HOPE", "long": 82.48, "icao": "KP58", "state": "MICHIGAN", "abbr": "MI", "lat": 44.01, "elv": 179.0}, {"name": "PORT HURON", "long": 82.31, "icao": "KPHN", "state": "MICHIGAN", "abbr": "MI", "lat": 42.55, "elv": 198.0}, {"name": "ROGERS CITY", "long": 83.49, "icao": "KPZQ", "state": "MICHIGAN", "abbr": "MI", "lat": 45.24, "elv": 204.0}, {"name": "SAGINAW", "long": 84.05, "icao": "KMBS", "state": "MICHIGAN", "abbr": "MI", "lat": 43.32, "elv": 202.0}, {"name": "SAULT STE MARIE", "long": 84.22, "icao": "KANJ", "state": "MICHIGAN", "abbr": "MI", "lat": 46.28, "elv": 218.0}, {"name": "SELFRIDGE ANGB", "long": 82.49, "icao": "KMTC", "state": "MICHIGAN", "abbr": "MI", "lat": 42.37, "elv": 177.0}, {"name": "SOUTH HAVEN", "long": 86.15, "icao": "KLWA", "state": "MICHIGAN", "abbr": "MI", "lat": 42.21, "elv": 203.0}, {"name": "THREE RIVERS", "long": 85.36, "icao": "KHAI", "state": "MICHIGAN", "abbr": "MI", "lat": 41.58, "elv": 251.0}, {"name": "TRAVERSE CIT", "long": 85.34, "icao": "KTVC", "state": "MICHIGAN", "abbr": "MI", "lat": 44.44, "elv": 190.0}, {"name": "AITKIN NDB", "long": 93.4, "icao": "KAIT", "state": "MINNESOTA", "abbr": "MN", "lat": 46.32, "elv": 367.0}, {"name": "ALBERT LEA", "long": 93.22, "icao": "KAEL", "state": "MINNESOTA", "abbr": "MN", "lat": 43.4, "elv": 383.0}, {"name": "ALEXANDRIA", "long": 95.24, "icao": "KAXN", "state": "MINNESOTA", "abbr": "MN", "lat": 45.52, "elv": 433.0}, {"name": "APPLETON MUNICIP", "long": 96.0, "icao": "KAQP", "state": "MINNESOTA", "abbr": "MN", "lat": 45.13, "elv": 311.0}, {"name": "AUSTIN MUNI", "long": 92.55, "icao": "KAUM", "state": "MINNESOTA", "abbr": "MN", "lat": 43.4, "elv": 375.0}, {"name": "BAUDETTE", "long": 94.37, "icao": "KBDE", "state": "MINNESOTA", "abbr": "MN", "lat": 48.44, "elv": 329.0}, {"name": "BEMIDJI", "long": 94.55, "icao": "KBJI", "state": "MINNESOTA", "abbr": "MN", "lat": 47.3, "elv": 420.0}, {"name": "BENSON MUNI", "long": 95.39, "icao": "KBBB", "state": "MINNESOTA", "abbr": "MN", "lat": 45.19, "elv": 317.0}, {"name": "BIGFORK", "long": 93.39, "icao": "KFOZ", "state": "MINNESOTA", "abbr": "MN", "lat": 47.46, "elv": 411.0}, {"name": "BRAINERD", "long": 94.08, "icao": "KBRD", "state": "MINNESOTA", "abbr": "MN", "lat": 46.24, "elv": 372.0}, {"name": "BUFFALO MUNI", "long": 93.51, "icao": "KCFE", "state": "MINNESOTA", "abbr": "MN", "lat": 45.1, "elv": 295.0}, {"name": "CAMBRIDGE MUNI", "long": 93.16, "icao": "KCBG", "state": "MINNESOTA", "abbr": "MN", "lat": 45.34, "elv": 287.0}, {"name": "CLOQUET", "long": 92.3, "icao": "KCOQ", "state": "MINNESOTA", "abbr": "MN", "lat": 46.42, "elv": 390.0}, {"name": "COOK MUNI AIRPOR", "long": 92.41, "icao": "KCQM", "state": "MINNESOTA", "abbr": "MN", "lat": 47.49, "elv": 404.0}, {"name": "CRANE LAKE", "long": 92.29, "icao": "KCDD", "state": "MINNESOTA", "abbr": "MN", "lat": 48.16, "elv": 341.0}, {"name": "CROOKSTON MUNI", "long": 96.37, "icao": "KCKN", "state": "MINNESOTA", "abbr": "MN", "lat": 47.51, "elv": 273.0}, {"name": "DETROIT LAKES", "long": 95.52, "icao": "KDTL", "state": "MINNESOTA", "abbr": "MN", "lat": 46.49, "elv": 426.0}, {"name": "DODGE CENTER", "long": 92.49, "icao": "KTOB", "state": "MINNESOTA", "abbr": "MN", "lat": 44.01, "elv": 398.0}, {"name": "DULUTH", "long": 92.12, "icao": "KDLH", "state": "MINNESOTA", "abbr": "MN", "lat": 46.51, "elv": 435.0}, {"name": "ELBOW LAKE MUNI", "long": 96.0, "icao": "KY63", "state": "MINNESOTA", "abbr": "MN", "lat": 45.59, "elv": 367.0}, {"name": "ELY MUNI", "long": 91.49, "icao": "KELO", "state": "MINNESOTA", "abbr": "MN", "lat": 47.49, "elv": 443.0}, {"name": "EVELETH MUNI", "long": 92.3, "icao": "KEVM", "state": "MINNESOTA", "abbr": "MN", "lat": 47.23, "elv": 421.0}, {"name": "FAIRMONT MUNI", "long": 94.25, "icao": "KFRM", "state": "MINNESOTA", "abbr": "MN", "lat": 43.38, "elv": 354.0}, {"name": "FARIBAULT MUNI", "long": 93.19, "icao": "KFBL", "state": "MINNESOTA", "abbr": "MN", "lat": 44.19, "elv": 322.0}, {"name": "FERGUS FALLS", "long": 96.09, "icao": "KFFM", "state": "MINNESOTA", "abbr": "MN", "lat": 46.16, "elv": 361.0}, {"name": "FLAG ISLAND", "long": 94.52, "icao": "KFGN", "state": "MINNESOTA", "abbr": "MN", "lat": 49.19, "elv": 328.0}, {"name": "FOSSTON", "long": 95.46, "icao": "KFSE", "state": "MINNESOTA", "abbr": "MN", "lat": 47.35, "elv": 389.0}, {"name": "GLENCOE", "long": 94.05, "icao": "KGYL", "state": "MINNESOTA", "abbr": "MN", "lat": 44.45, "elv": 302.0}, {"name": "GLENWOOD", "long": 95.19, "icao": "KGHW", "state": "MINNESOTA", "abbr": "MN", "lat": 45.38, "elv": 425.0}, {"name": "GRAND RAPIDS", "long": 93.31, "icao": "KGPZ", "state": "MINNESOTA", "abbr": "MN", "lat": 47.13, "elv": 413.0}, {"name": "GRANITE FALLS", "long": 95.33, "icao": "KGDB", "state": "MINNESOTA", "abbr": "MN", "lat": 44.45, "elv": 319.0}, {"name": "HALLOCK", "long": 96.56, "icao": "KHCO", "state": "MINNESOTA", "abbr": "MN", "lat": 48.45, "elv": 250.0}, {"name": "HIBBING", "long": 92.5, "icao": "KHIB", "state": "MINNESOTA", "abbr": "MN", "lat": 47.23, "elv": 412.0}, {"name": "HINCKLEY", "long": 92.54, "icao": "K04W", "state": "MINNESOTA", "abbr": "MN", "lat": 46.01, "elv": 311.0}, {"name": "HUTCHINSON", "long": 94.22, "icao": "KHCD", "state": "MINNESOTA", "abbr": "MN", "lat": 44.52, "elv": 323.0}, {"name": "INTERNTNL FALLS", "long": 93.24, "icao": "KINL", "state": "MINNESOTA", "abbr": "MN", "lat": 48.34, "elv": 360.0}, {"name": "JACKSON MUNI", "long": 94.58, "icao": "KMJQ", "state": "MINNESOTA", "abbr": "MN", "lat": 43.38, "elv": 441.0}, {"name": "LAKE ELMO", "long": 92.51, "icao": "K21D", "state": "MINNESOTA", "abbr": "MN", "lat": 45.0, "elv": 285.0}, {"name": "LITCHFIELD", "long": 94.3, "icao": "KLJF", "state": "MINNESOTA", "abbr": "MN", "lat": 45.06, "elv": 348.0}, {"name": "LITTLE FALLS", "long": 94.2, "icao": "KLXL", "state": "MINNESOTA", "abbr": "MN", "lat": 45.57, "elv": 342.0}, {"name": "LONG PRAIRIE", "long": 94.52, "icao": "K14Y", "state": "MINNESOTA", "abbr": "MN", "lat": 45.54, "elv": 406.0}, {"name": "LONGVILLE", "long": 94.12, "icao": "KXVG", "state": "MINNESOTA", "abbr": "MN", "lat": 46.59, "elv": 407.0}, {"name": "LUVERNE", "long": 96.13, "icao": "KLYV", "state": "MINNESOTA", "abbr": "MN", "lat": 43.37, "elv": 436.0}, {"name": "MADISON", "long": 96.1, "icao": "KDXX", "state": "MINNESOTA", "abbr": "MN", "lat": 44.59, "elv": 330.0}, {"name": "MANKATO", "long": 93.55, "icao": "KMKT", "state": "MINNESOTA", "abbr": "MN", "lat": 44.13, "elv": 311.0}, {"name": "MAPLE LAKE", "long": 93.59, "icao": "KMGG", "state": "MINNESOTA", "abbr": "MN", "lat": 45.14, "elv": 313.0}, {"name": "MINNEAPOLIS", "long": 93.14, "icao": "KMSP", "state": "MINNESOTA", "abbr": "MN", "lat": 44.53, "elv": 265.0}, {"name": "MONTEVIDEO", "long": 95.43, "icao": "KMVE", "state": "MINNESOTA", "abbr": "MN", "lat": 44.58, "elv": 315.0}, {"name": "MOORHEAD MUNI", "long": 96.4, "icao": "KJKJ", "state": "MINNESOTA", "abbr": "MN", "lat": 46.5, "elv": 280.0}, {"name": "MOOSE LAKE", "long": 92.48, "icao": "KMZH", "state": "MINNESOTA", "abbr": "MN", "lat": 46.25, "elv": 328.0}, {"name": "MORA", "long": 93.16, "icao": "KJMR", "state": "MINNESOTA", "abbr": "MN", "lat": 45.53, "elv": 309.0}, {"name": "MORRIS MUNI", "long": 95.58, "icao": "KMOX", "state": "MINNESOTA", "abbr": "MN", "lat": 45.34, "elv": 344.0}, {"name": "NEW ULM MUNI", "long": 94.3, "icao": "KULM", "state": "MINNESOTA", "abbr": "MN", "lat": 44.19, "elv": 308.0}, {"name": "OLIVIA", "long": 95.02, "icao": "KOVL", "state": "MINNESOTA", "abbr": "MN", "lat": 44.47, "elv": 328.0}, {"name": "ORR", "long": 92.52, "icao": "KORB", "state": "MINNESOTA", "abbr": "MN", "lat": 48.01, "elv": 397.0}, {"name": "ORTONVILLE", "long": 96.25, "icao": "KVVV", "state": "MINNESOTA", "abbr": "MN", "lat": 45.18, "elv": 335.0}, {"name": "OWATONNA", "long": 93.15, "icao": "KOWA", "state": "MINNESOTA", "abbr": "MN", "lat": 44.07, "elv": 350.0}, {"name": "PARK RAPIDS", "long": 95.04, "icao": "KPKD", "state": "MINNESOTA", "abbr": "MN", "lat": 46.54, "elv": 442.0}, {"name": "PAYNESVILLE", "long": 94.45, "icao": "KPEX", "state": "MINNESOTA", "abbr": "MN", "lat": 45.22, "elv": 360.0}, {"name": "PINE RIVER REGIO", "long": 94.22, "icao": "KPWC", "state": "MINNESOTA", "abbr": "MN", "lat": 46.43, "elv": 395.0}, {"name": "PIPESTONE", "long": 96.19, "icao": "KPQN", "state": "MINNESOTA", "abbr": "MN", "lat": 43.58, "elv": 529.0}, {"name": "PRESTON", "long": 92.11, "icao": "KFKA", "state": "MINNESOTA", "abbr": "MN", "lat": 43.41, "elv": 389.0}, {"name": "PRINCETON MUNI", "long": 93.36, "icao": "KPNM", "state": "MINNESOTA", "abbr": "MN", "lat": 45.33, "elv": 298.0}, {"name": "RED WING", "long": 92.29, "icao": "KRGK", "state": "MINNESOTA", "abbr": "MN", "lat": 44.35, "elv": 239.0}, {"name": "REDWOOD FALL", "long": 95.05, "icao": "KRWF", "state": "MINNESOTA", "abbr": "MN", "lat": 44.33, "elv": 311.0}, {"name": "ROCHESTER", "long": 92.3, "icao": "KRST", "state": "MINNESOTA", "abbr": "MN", "lat": 43.54, "elv": 403.0}, {"name": "ST MARY HOSPITAL", "long": 92.29, "icao": "K9MN", "state": "MINNESOTA", "abbr": "MN", "lat": 44.01, "elv": 355.0}, {"name": "ROSEAU MUNI", "long": 95.42, "icao": "KROX", "state": "MINNESOTA", "abbr": "MN", "lat": 48.51, "elv": 323.0}, {"name": "RUSH CITY", "long": 92.57, "icao": "KROS", "state": "MINNESOTA", "abbr": "MN", "lat": 45.42, "elv": 281.0}, {"name": "SAUK CENTRE", "long": 94.56, "icao": "KD39", "state": "MINNESOTA", "abbr": "MN", "lat": 45.42, "elv": 380.0}, {"name": "SILVER BAY", "long": 91.24, "icao": "KBFW", "state": "MINNESOTA", "abbr": "MN", "lat": 47.12, "elv": 331.0}, {"name": "SLAYTON", "long": 95.47, "icao": "KDVP", "state": "MINNESOTA", "abbr": "MN", "lat": 43.59, "elv": 495.0}, {"name": "SOUTH ST PAUL", "long": 93.02, "icao": "KSGS", "state": "MINNESOTA", "abbr": "MN", "lat": 44.51, "elv": 250.0}, {"name": "STANTON", "long": 93.01, "icao": "KSYN", "state": "MINNESOTA", "abbr": "MN", "lat": 44.29, "elv": 280.0}, {"name": "STAPLES", "long": 94.48, "icao": "KSAZ", "state": "MINNESOTA", "abbr": "MN", "lat": 46.22, "elv": 392.0}, {"name": "THIEF RIVER", "long": 96.1, "icao": "KTVF", "state": "MINNESOTA", "abbr": "MN", "lat": 48.04, "elv": 340.0}, {"name": "TRACY", "long": 95.37, "icao": "KTKC", "state": "MINNESOTA", "abbr": "MN", "lat": 44.15, "elv": 408.0}, {"name": "TWO HARBORS", "long": 91.45, "icao": "KTWM", "state": "MINNESOTA", "abbr": "MN", "lat": 47.02, "elv": 328.0}, {"name": "WADENA MUNI", "long": 95.13, "icao": "KADC", "state": "MINNESOTA", "abbr": "MN", "lat": 46.27, "elv": 418.0}, {"name": "WARROAD", "long": 95.2, "icao": "KRRT", "state": "MINNESOTA", "abbr": "MN", "lat": 48.56, "elv": 327.0}, {"name": "WASECA", "long": 93.33, "icao": "KACQ", "state": "MINNESOTA", "abbr": "MN", "lat": 44.04, "elv": 343.0}, {"name": "WASKISH MUNI", "long": 94.31, "icao": "KVWU", "state": "MINNESOTA", "abbr": "MN", "lat": 48.09, "elv": 360.0}, {"name": "WHEATON NDB", "long": 96.33, "icao": "KETH", "state": "MINNESOTA", "abbr": "MN", "lat": 45.47, "elv": 313.0}, {"name": "WILLMAR MUNI", "long": 95.08, "icao": "KBDH", "state": "MINNESOTA", "abbr": "MN", "lat": 45.07, "elv": 247.0}, {"name": "WINDOM MUNI AIRP", "long": 95.06, "icao": "KMWM", "state": "MINNESOTA", "abbr": "MN", "lat": 43.54, "elv": 430.0}, {"name": "WINONA MUNI", "long": 91.42, "icao": "KONA", "state": "MINNESOTA", "abbr": "MN", "lat": 44.04, "elv": 200.0}, {"name": "WORTHINGTON", "long": 95.34, "icao": "KOTG", "state": "MINNESOTA", "abbr": "MN", "lat": 43.38, "elv": 480.0}, {"name": "BAY ST LOUIS", "long": 89.27, "icao": "KHSA", "state": "MISSISSIPPI", "abbr": "MS", "lat": 30.22, "elv": 7.0}, {"name": "BROOKHAVEN", "long": 90.25, "icao": "K1R7", "state": "MISSISSIPPI", "abbr": "MS", "lat": 31.36, "elv": 149.0}, {"name": "CLARKSDALE", "long": 90.31, "icao": "KCKM", "state": "MISSISSIPPI", "abbr": "MS", "lat": 34.18, "elv": 53.0}, {"name": "COLUMBUS AFB", "long": 88.27, "icao": "KCBM", "state": "MISSISSIPPI", "abbr": "MS", "lat": 33.38, "elv": 67.0}, {"name": "GREENVILLE", "long": 90.59, "icao": "KGLH", "state": "MISSISSIPPI", "abbr": "MS", "lat": 33.3, "elv": 45.0}, {"name": "GREENWOOD", "long": 90.05, "icao": "KGWO", "state": "MISSISSIPPI", "abbr": "MS", "lat": 33.3, "elv": 44.0}, {"name": "GULFPORT", "long": 89.05, "icao": "KGPT", "state": "MISSISSIPPI", "abbr": "MS", "lat": 30.25, "elv": 14.0}, {"name": "HATTIESBURG", "long": 89.15, "icao": "KHBG", "state": "MISSISSIPPI", "abbr": "MS", "lat": 31.16, "elv": 44.0}, {"name": "JACKSON", "long": 90.05, "icao": "KJAN", "state": "MISSISSIPPI", "abbr": "MS", "lat": 32.19, "elv": 91.0}, {"name": "MCCOMB", "long": 90.28, "icao": "KMCB", "state": "MISSISSIPPI", "abbr": "MS", "lat": 31.11, "elv": 124.0}, {"name": "MERIDIAN NAS", "long": 88.34, "icao": "KNMM", "state": "MISSISSIPPI", "abbr": "MS", "lat": 32.32, "elv": 97.0}, {"name": "OLIVE BRANCH", "long": 89.47, "icao": "KOLV", "state": "MISSISSIPPI", "abbr": "MS", "lat": 34.59, "elv": 122.0}, {"name": "OXFORD", "long": 89.32, "icao": "KUOX", "state": "MISSISSIPPI", "abbr": "MS", "lat": 34.23, "elv": 137.0}, {"name": "PASCAGOULA", "long": 88.32, "icao": "KPQL", "state": "MISSISSIPPI", "abbr": "MS", "lat": 30.28, "elv": 6.0}, {"name": "PINE BELT RGNL", "long": 89.19, "icao": "KPIB", "state": "MISSISSIPPI", "abbr": "MS", "lat": 31.28, "elv": 91.0}, {"name": "RAYMOND", "long": 90.25, "icao": "KJVW", "state": "MISSISSIPPI", "abbr": "MS", "lat": 32.18, "elv": 76.0}, {"name": "STARKVILLE", "long": 88.51, "icao": "KSTF", "state": "MISSISSIPPI", "abbr": "MS", "lat": 33.26, "elv": 102.0}, {"name": "TUNICA", "long": 90.21, "icao": "KUTA", "state": "MISSISSIPPI", "abbr": "MS", "lat": 34.41, "elv": 59.0}, {"name": "TUPELO", "long": 88.46, "icao": "KTUP", "state": "MISSISSIPPI", "abbr": "MS", "lat": 34.16, "elv": 105.0}, {"name": "RAYMOND", "long": 90.25, "icao": "KM16", "state": "MISSISSIPPI", "abbr": "MS", "lat": 32.18, "elv": 76.0}, {"name": "INNOVATOR OILP", "long": 89.37, "icao": "KMYT", "state": "MISSISSIPPI", "abbr": "MS", "lat": 28.13, "elv": 23.0}, {"name": "BOONVILLE", "long": 92.41, "icao": "KVER", "state": "MISSOURI", "abbr": "MO", "lat": 38.57, "elv": 218.0}, {"name": "BRANSON", "long": 93.12, "icao": "KBBG", "state": "MISSOURI", "abbr": "MO", "lat": 36.32, "elv": 397.0}, {"name": "CAMDENTON", "long": 92.41, "icao": "KH21", "state": "MISSOURI", "abbr": "MO", "lat": 37.58, "elv": 324.0}, {"name": "CAPE GIRARDEAU", "long": 89.35, "icao": "KCGI", "state": "MISSOURI", "abbr": "MO", "lat": 37.14, "elv": 102.0}, {"name": "CHILLICOTHE", "long": 93.35, "icao": "KCDJ", "state": "MISSOURI", "abbr": "MO", "lat": 39.49, "elv": 234.0}, {"name": "CLINTON", "long": 93.41, "icao": "KGLY", "state": "MISSOURI", "abbr": "MO", "lat": 38.21, "elv": 251.0}, {"name": "COLUMBIA", "long": 92.13, "icao": "KCOU", "state": "MISSOURI", "abbr": "MO", "lat": 38.49, "elv": 271.0}, {"name": "FARMINGTON", "long": 90.25, "icao": "KFAM", "state": "MISSOURI", "abbr": "MO", "lat": 37.46, "elv": 288.0}, {"name": "FORT LEONARD WOO", "long": 92.07, "icao": "KTBN", "state": "MISSOURI", "abbr": "MO", "lat": 37.43, "elv": 353.0}, {"name": "JEFFERSON CITY", "long": 92.09, "icao": "KJEF", "state": "MISSOURI", "abbr": "MO", "lat": 38.36, "elv": 168.0}, {"name": "JOPLIN", "long": 94.3, "icao": "KJLN", "state": "MISSOURI", "abbr": "MO", "lat": 37.09, "elv": 299.0}, {"name": "KAISER MEM", "long": 92.32, "icao": "KAIZ", "state": "MISSOURI", "abbr": "MO", "lat": 38.06, "elv": 265.0}, {"name": "KIRKSVILLE", "long": 92.33, "icao": "KIRK", "state": "MISSOURI", "abbr": "MO", "lat": 40.06, "elv": 293.0}, {"name": "LEES SUMMIT MUNI", "long": 94.22, "icao": "KLXT", "state": "MISSOURI", "abbr": "MO", "lat": 38.58, "elv": 306.0}, {"name": "MONETT", "long": 94.01, "icao": "KHFJ", "state": "MISSOURI", "abbr": "MO", "lat": 36.54, "elv": 401.0}, {"name": "POPULAR BLUFF", "long": 90.19, "icao": "KPOF", "state": "MISSOURI", "abbr": "MO", "lat": 36.46, "elv": 99.0}, {"name": "SEDALIA", "long": 93.1, "icao": "KDMO", "state": "MISSOURI", "abbr": "MO", "lat": 38.43, "elv": 274.0}, {"name": "SPRINGFIELD", "long": 93.23, "icao": "KSGF", "state": "MISSOURI", "abbr": "MO", "lat": 37.14, "elv": 390.0}, {"name": "WARRENSBURG SKYH", "long": 93.48, "icao": "KRCM", "state": "MISSOURI", "abbr": "MO", "lat": 38.47, "elv": 244.0}, {"name": "WEST PLAINS", "long": 91.54, "icao": "KUNO", "state": "MISSOURI", "abbr": "MO", "lat": 36.53, "elv": 372.0}, {"name": "WHITEMAN AFB", "long": 93.32, "icao": "KSZL", "state": "MISSOURI", "abbr": "MO", "lat": 38.43, "elv": 265.0}, {"name": "BILLINGS", "long": 108.33, "icao": "KBIL", "state": "MONTANA", "abbr": "MT", "lat": 45.48, "elv": 1091.0}, {"name": "BOZEMAN", "long": 111.1, "icao": "KBZN", "state": "MONTANA", "abbr": "MT", "lat": 45.47, "elv": 1361.0}, {"name": "BUTTE", "long": 112.3, "icao": "KBTM", "state": "MONTANA", "abbr": "MT", "lat": 45.58, "elv": 1688.0}, {"name": "CUT BANK", "long": 112.22, "icao": "KCTB", "state": "MONTANA", "abbr": "MT", "lat": 48.36, "elv": 1175.0}, {"name": "DILLON", "long": 112.33, "icao": "KDLN", "state": "MONTANA", "abbr": "MT", "lat": 45.15, "elv": 1591.0}, {"name": "DRUMMOND", "long": 113.09, "icao": "K3DU", "state": "MONTANA", "abbr": "MT", "lat": 46.4, "elv": 1202.0}, {"name": "GLASGOW", "long": 106.37, "icao": "KGGW", "state": "MONTANA", "abbr": "MT", "lat": 48.13, "elv": 694.0}, {"name": "GLENDIVE", "long": 104.47, "icao": "KGDV", "state": "MONTANA", "abbr": "MT", "lat": 47.07, "elv": 749.0}, {"name": "GREAT FALLS", "long": 111.23, "icao": "KGTF", "state": "MONTANA", "abbr": "MT", "lat": 47.28, "elv": 1119.0}, {"name": "HAVRE", "long": 109.46, "icao": "KHVR", "state": "MONTANA", "abbr": "MT", "lat": 48.33, "elv": 787.0}, {"name": "HELENA", "long": 111.58, "icao": "KHLN", "state": "MONTANA", "abbr": "MT", "lat": 46.36, "elv": 1182.0}, {"name": "JORDAN", "long": 106.57, "icao": "KJDN", "state": "MONTANA", "abbr": "MT", "lat": 47.2, "elv": 801.0}, {"name": "KALISPELL", "long": 114.15, "icao": "KGPI", "state": "MONTANA", "abbr": "MT", "lat": 48.19, "elv": 908.0}, {"name": "LEWISTOWN", "long": 109.28, "icao": "KLWT", "state": "MONTANA", "abbr": "MT", "lat": 47.02, "elv": 1270.0}, {"name": "LIVINGSTON", "long": 110.26, "icao": "KLVM", "state": "MONTANA", "abbr": "MT", "lat": 45.42, "elv": 1418.0}, {"name": "MALMSTROM AFB", "long": 111.1, "icao": "KGFA", "state": "MONTANA", "abbr": "MT", "lat": 47.3, "elv": 1075.0}, {"name": "MILES CITY", "long": 105.53, "icao": "KMLS", "state": "MONTANA", "abbr": "MT", "lat": 46.26, "elv": 801.0}, {"name": "MISSOULA", "long": 114.06, "icao": "KMSO", "state": "MONTANA", "abbr": "MT", "lat": 46.55, "elv": 975.0}, {"name": "SIDNEY RICHLAND", "long": 104.12, "icao": "KSDY", "state": "MONTANA", "abbr": "MT", "lat": 47.42, "elv": 605.0}, {"name": "WOLF POINT", "long": 105.35, "icao": "KOLF", "state": "MONTANA", "abbr": "MT", "lat": 48.06, "elv": 604.0}, {"name": "WEST YELLOWSTONE", "long": 111.07, "icao": "KWYS", "state": "MONTANA", "abbr": "MT", "lat": 44.4, "elv": 2025.0}, {"name": "AINSWORTH MUNICI", "long": 100.0, "icao": "KANW", "state": "NEBRASKA", "abbr": "NE", "lat": 42.34, "elv": 789.0}, {"name": "ALBION MUNI", "long": 98.03, "icao": "KBVN", "state": "NEBRASKA", "abbr": "NE", "lat": 41.44, "elv": 551.0}, {"name": "ALLIANCE", "long": 102.48, "icao": "KAIA", "state": "NEBRASKA", "abbr": "NE", "lat": 42.03, "elv": 1196.0}, {"name": "AURORA", "long": 98.0, "icao": "KAUH", "state": "NEBRASKA", "abbr": "NE", "lat": 40.53, "elv": 550.0}, {"name": "BEATRICE MUNICIP", "long": 96.45, "icao": "KBIE", "state": "NEBRASKA", "abbr": "NE", "lat": 40.17, "elv": 403.0}, {"name": "BLAIR MUNI", "long": 96.07, "icao": "KBTA", "state": "NEBRASKA", "abbr": "NE", "lat": 41.25, "elv": 396.0}, {"name": "BROKEN BOW MUNI", "long": 99.38, "icao": "KBBW", "state": "NEBRASKA", "abbr": "NE", "lat": 41.26, "elv": 776.0}, {"name": "CHADRON", "long": 103.06, "icao": "KCDR", "state": "NEBRASKA", "abbr": "NE", "lat": 42.5, "elv": 1010.0}, {"name": "COLUMBUS MUNI", "long": 97.19, "icao": "KOLU", "state": "NEBRASKA", "abbr": "NE", "lat": 41.27, "elv": 440.0}, {"name": "FREMONT MUNI ARP", "long": 96.31, "icao": "KFET", "state": "NEBRASKA", "abbr": "NE", "lat": 41.27, "elv": 367.0}, {"name": "GRAND ISLAND", "long": 98.19, "icao": "KGRI", "state": "NEBRASKA", "abbr": "NE", "lat": 40.58, "elv": 561.0}, {"name": "HASTINGS", "long": 98.26, "icao": "KHSI", "state": "NEBRASKA", "abbr": "NE", "lat": 40.36, "elv": 591.0}, {"name": "HEBRON MUNI", "long": 97.35, "icao": "KHJH", "state": "NEBRASKA", "abbr": "NE", "lat": 40.09, "elv": 447.0}, {"name": "IMPERIAL MUNICIP", "long": 101.37, "icao": "KIML", "state": "NEBRASKA", "abbr": "NE", "lat": 40.31, "elv": 998.0}, {"name": "KEARNEY MUNI", "long": 99.0, "icao": "KEAR", "state": "NEBRASKA", "abbr": "NE", "lat": 40.43, "elv": 649.0}, {"name": "KIMBALL MUNI", "long": 103.41, "icao": "KIBM", "state": "NEBRASKA", "abbr": "NE", "lat": 41.11, "elv": 1501.0}, {"name": "LEXINGTON", "long": 99.46, "icao": "KLXN", "state": "NEBRASKA", "abbr": "NE", "lat": 40.47, "elv": 734.0}, {"name": "LINCOLN", "long": 96.46, "icao": "KLNK", "state": "NEBRASKA", "abbr": "NE", "lat": 40.51, "elv": 364.0}, {"name": "MCCOOK", "long": 100.35, "icao": "KMCK", "state": "NEBRASKA", "abbr": "NE", "lat": 40.12, "elv": 782.0}, {"name": "NEBRASKA CITY", "long": 95.51, "icao": "KAFK", "state": "NEBRASKA", "abbr": "NE", "lat": 40.36, "elv": 354.0}, {"name": "NORFOLK", "long": 97.26, "icao": "KOFK", "state": "NEBRASKA", "abbr": "NE", "lat": 41.59, "elv": 470.0}, {"name": "NORTH PLATTE", "long": 100.4, "icao": "KLBF", "state": "NEBRASKA", "abbr": "NE", "lat": 41.07, "elv": 847.0}, {"name": "OGALLALA", "long": 101.46, "icao": "KOGA", "state": "NEBRASKA", "abbr": "NE", "lat": 41.07, "elv": 999.0}, {"name": "PLATTSMOUTH MUNI", "long": 95.55, "icao": "KPMV", "state": "NEBRASKA", "abbr": "NE", "lat": 40.57, "elv": 367.0}, {"name": "SCOTTSBLUFF", "long": 103.35, "icao": "KBFF", "state": "NEBRASKA", "abbr": "NE", "lat": 41.52, "elv": 1203.0}, {"name": "SIDNEY", "long": 102.59, "icao": "KSNY", "state": "NEBRASKA", "abbr": "NE", "lat": 41.06, "elv": 1307.0}, {"name": "TEKAMAH", "long": 96.11, "icao": "KTQE", "state": "NEBRASKA", "abbr": "NE", "lat": 41.46, "elv": 312.0}, {"name": "VALENTINE", "long": 100.33, "icao": "KVTN", "state": "NEBRASKA", "abbr": "NE", "lat": 42.52, "elv": 788.0}, {"name": "WAHOO", "long": 96.36, "icao": "KAHQ", "state": "NEBRASKA", "abbr": "NE", "lat": 41.14, "elv": 374.0}, {"name": "WAYNE MUNI", "long": 96.59, "icao": "KLCG", "state": "NEBRASKA", "abbr": "NE", "lat": 42.15, "elv": 436.0}, {"name": "YORK", "long": 97.37, "icao": "KJYR", "state": "NEBRASKA", "abbr": "NE", "lat": 40.54, "elv": 509.0}, {"name": "BOULDER CITY", "long": 114.52, "icao": "KBVU", "state": "NEVADA", "abbr": "NV", "lat": 35.57, "elv": 671.0}, {"name": "CARSON CITY", "long": 119.43, "icao": "KCXP", "state": "NEVADA", "abbr": "NV", "lat": 39.11, "elv": 1435.0}, {"name": "ELKO", "long": 115.47, "icao": "KEKO", "state": "NEVADA", "abbr": "NV", "lat": 40.5, "elv": 1547.0}, {"name": "ELY", "long": 114.51, "icao": "KELY", "state": "NEVADA", "abbr": "NV", "lat": 39.18, "elv": 1906.0}, {"name": "EUREKA", "long": 116.0, "icao": "KP68", "state": "NEVADA", "abbr": "NV", "lat": 39.36, "elv": 1809.0}, {"name": "FALLON NAS", "long": 118.42, "icao": "KNFL", "state": "NEVADA", "abbr": "NV", "lat": 39.25, "elv": 1199.0}, {"name": "INDIAN SPRINGS", "long": 115.4, "icao": "KINS", "state": "NEVADA", "abbr": "NV", "lat": 36.35, "elv": 955.0}, {"name": "LAS VEGAS", "long": 115.09, "icao": "KLAS", "state": "NEVADA", "abbr": "NV", "lat": 36.05, "elv": 636.0}, {"name": "LOVELOCK", "long": 118.34, "icao": "KLOL", "state": "NEVADA", "abbr": "NV", "lat": 40.04, "elv": 1189.0}, {"name": "NORTH LAS VEGAS", "long": 115.12, "icao": "KVGT", "state": "NEVADA", "abbr": "NV", "lat": 36.12, "elv": 671.0}, {"name": "RENO", "long": 119.46, "icao": "KRNO", "state": "NEVADA", "abbr": "NV", "lat": 39.29, "elv": 1342.0}, {"name": "TONOPAH", "long": 117.05, "icao": "KTPH", "state": "NEVADA", "abbr": "NV", "lat": 38.03, "elv": 1652.0}, {"name": "WINNEMUCCA", "long": 117.48, "icao": "KWMC", "state": "NEVADA", "abbr": "NV", "lat": 40.54, "elv": 1310.0}, {"name": "BERLIN", "long": 71.11, "icao": "KBML", "state": "NEVADA", "abbr": "NH", "lat": 44.35, "elv": 345.0}, {"name": "CONCORD", "long": 71.3, "icao": "KCON", "state": "NEVADA", "abbr": "NH", "lat": 43.12, "elv": 103.0}, {"name": "JAFFREY", "long": 72.0, "icao": "KAFN", "state": "NEVADA", "abbr": "NH", "lat": 42.48, "elv": 313.0}, {"name": "LACONIA MUNI", "long": 71.25, "icao": "KLCI", "state": "NEVADA", "abbr": "NH", "lat": 43.34, "elv": 166.0}, {"name": "LEBANON", "long": 72.18, "icao": "KLEB", "state": "NEVADA", "abbr": "NH", "lat": 43.38, "elv": 171.0}, {"name": "MANCHESTER", "long": 71.26, "icao": "KMHT", "state": "NEVADA", "abbr": "NH", "lat": 42.56, "elv": 81.0}, {"name": "MOUNT WASHINGTON", "long": 71.17, "icao": "KMWN", "state": "NEVADA", "abbr": "NH", "lat": 44.16, "elv": 1910.0}, {"name": "PLYMOUTH", "long": 71.45, "icao": "K1P1", "state": "NEVADA", "abbr": "NH", "lat": 43.47, "elv": 154.0}, {"name": "ROCHESTER", "long": 70.55, "icao": "KDAW", "state": "NEVADA", "abbr": "NH", "lat": 43.17, "elv": 100.0}, {"name": "WHITEFIELD", "long": 71.33, "icao": "KHIE", "state": "NEVADA", "abbr": "NH", "lat": 44.22, "elv": 318.0}, {"name": "ANDOVER", "long": 74.44, "icao": "K12N", "state": "NEVADA", "abbr": "NJ", "lat": 41.01, "elv": 177.0}, {"name": "ATLANTIC CITY", "long": 74.35, "icao": "KACY", "state": "NEVADA", "abbr": "NJ", "lat": 39.28, "elv": 23.0}, {"name": "CALDWELL", "long": 74.17, "icao": "KCDW", "state": "NEVADA", "abbr": "NJ", "lat": 40.53, "elv": 64.0}, {"name": "LAKEHURST NAS", "long": 74.2, "icao": "KNEL", "state": "NEVADA", "abbr": "NJ", "lat": 40.01, "elv": 31.0}, {"name": "MILLVILLE", "long": 75.05, "icao": "KMIV", "state": "NEVADA", "abbr": "NJ", "lat": 39.22, "elv": 23.0},